"ADDRESS","NUMBER","STREET","UNIT","CITY","DISTRICT","REGION","POSTCODE","ID","STATE","matched_street","matched_zip","matched_city","matched_state","lat","lon","score","precision","geocode_result","tract00","tract10","tract20"
" 30TH ST  CA 95660","","30TH ST","","",NA,"","95660","2.08008E+13","CA","30th St",95660,"North Highlands","CA",38.697702,-121.396695,0.744,"street","geocoded",74.06,74.06,74.35
" 46TH ST  CA 95823","","46TH ST","","",NA,"","95823","3.90011E+12","CA","46th St",95823,"Sacramento","CA",38.507134,-121.452422,0.763,"street","geocoded",47,47.02,47.02
" 7TH AVE  CA 95820","","7TH AVE","","",NA,"","95820","1.50111E+12","CA","7th Ave",95820,"Sacramento","CA",38.545245,-121.452747,0.763,"street","geocoded",29,29,29
" BANNISTER RD  CA 95628","","BANNISTER RD","","",NA,"","95628","2.4201E+13","CA","Bannister Rd",95628,"Fair Oaks","CA",38.633629,-121.287086,0.881,"street","geocoded",80.1,80.1,80.1
" BOND RD  CA 95624","","BOND RD","","",NA,"","95624","1.16147E+13","CA","Bond Rd",95624,"Point Pleasant","CA",38.423465,-121.382756,0.888,"street","geocoded",93.08,93.23,93.23
" BRANDON OAKS LN  CA 95608","","BRANDON OAKS LN","","",NA,"","95608","2.56038E+13","CA","Brandon Oaks Ln",95608,"Carmichael","CA",38.630426,-121.345976,0.886,"street","geocoded",76.02,76.02,76.02
" BRANNAN ISLAND RD  CA 95641","","BRANNAN ISLAND RD","","",NA,"","95641","1.56008E+13","CA","Brannan Island Rd",95641,"Isleton","CA",38.126855,-121.58218,0.882,"street","geocoded",98,98,98
" E SANDBURG DR  CA 95819","","E SANDBURG DR","","",NA,"","95819","5.0231E+11","CA","Sandburg Dr",95819,"Sacramento","CA",38.57577,-121.42378,0.813,"street","geocoded",1,1,1
" ELDER CREEK RD  CA 95829","","ELDER CREEK RD","","",NA,"","95829","6.3012E+12","CA","Elder Creek Rd",95829,"Sacramento","CA",38.510715,-121.36843,0.878,"street","geocoded",92,92.01,92.01
" FANUCCHI WAY BAKERSFIELD CA 93263","","FANUCCHI WAY","","BAKERSFIELD",NA,"CA","93263","81719","CA","Fanucchi Way E",93263,"North Shafter","CA",35.456081,-119.192848,0.714,"street","geocoded",39,39,39
" FEWSTER WY  CA 95757","","FEWSTER WY","","",NA,"","95757","1.32254E+13","CA","Foster Way",95762,NA,NA,38.669982,-121.060889,0.586,"street","geocoded",307.03,318,318
" GRANT LINE RD  CA 95624","","GRANT LINE RD","","",NA,"","95624","1.26005E+13","CA","Grant Line Rd",95624,"Franklin","CA",38.485067,-121.242185,0.923,"street","geocoded",86,86,86.02
" GREENBACK LN  CA 95630","","GREENBACK LN","","",NA,"","95630","2.23006E+13","CA","Greenback Ln",95630,"White Rock","CA",38.677803,-121.195252,0.881,"street","geocoded",82.07,82.07,82.07
" JACKSON RD  CA 95683","","JACKSON RD","","",NA,"","95683","7.30115E+12","CA","Jackson Rd",95683,"Rancho Murieta","CA",38.50082,-121.217571,0.888,"street","geocoded",86,86,86.02
" KASSER RD  CA 95626","","KASSER RD","","",NA,"","95626","2.03001E+13","CA","Kasser Rd",95626,"Elverta","CA",38.728942,-121.419918,0.889,"street","geocoded",72.06,72.06,72.06
" LAGUNA POINTE WAY  CA 95758","","LAGUNA POINTE WAY","","",NA,"","95758","1.19141E+13","CA","Laguna Pointe Way",95758,"Elk Grove","CA",38.423155,-121.450392,0.874,"street","geocoded",96.18,96.18,96.18
" LICHEN DR  CA 95621","","LICHEN DR","","",NA,"","95621","2.09018E+13","CA","Lichen Dr",95621,"Citrus Heights","CA",38.708601,-121.311259,0.888,"street","geocoded",81.28,81.28,81.27
" MINNIE OLIVE WY  CA 95630","","MINNIE OLIVE WY","","",NA,"","95630","7.2278E+12","CA","Moon Cir",95630,"Folsom","CA",38.650304,-121.090072,0.562,"street","geocoded",85.02,85.13,85.13
" P ST  CA 95811","","P ST","","",NA,"","95811","7.0244E+11","CA","P St",95811,"Sacramento","CA",38.570765,-121.485428,0.871,"street","geocoded",12,12,12.01
" ROAD 30 1/2  CA MADER","","ROAD 30 1/2","","",NA,"","MADER","","CA",NA,NA,NA,NA,NA,NA,NA,NA,"imprecise_geocode",NA,NA,NA
" TIM BELL RD  CA ","","TIM BELL RD","","",NA,"","","","CA",NA,NA,NA,NA,NA,NA,NA,NA,"imprecise_geocode",NA,NA,NA
" WATERMAN RD  CA 95829","","WATERMAN RD","","",NA,"","95829","1.21086E+13","CA","Waterman Rd",95829,"Sacramento","CA",38.461722,-121.354095,0.896,"street","geocoded",93.13,93.12,93.29
" WHITE LN BAKERSFIELD CA 93311","","WHITE LN","","BAKERSFIELD",NA,"CA","93311","73269","CA","White Ln",93311,"Bakersfield","CA",35.318263,-119.096679,0.936,"street","geocoded",28.21,28.21,28.23
" WHITE ROCK RD  CA 95742","","WHITE ROCK RD","","",NA,"","95742","7.20231E+12","CA","White Rock Rd",95742,"Rancho Cordova","CA",38.589929,-121.262257,0.878,"street","geocoded",87.01,87.05,87.06
" WILLMS E OF RD  CA ","","WILLMS E OF RD","","",NA,"","","","CA",NA,NA,NA,NA,NA,NA,NA,NA,"imprecise_geocode",NA,NA,NA
"1 CLAREMONT BLVD  CA 94127","1","CLAREMONT BLVD","","",NA,"","94127","","CA","Claremont Blvd",94127,"San Francisco","CA",37.743749,-122.463686,0.909,"range","geocoded",308,308,304
"1 CORDONE DR SAN ANSELMO CA 94960","1","CORDONE DR","","SAN ANSELMO",NA,"","94960","","CA","Cordone Dr",94960,"San Anselmo","CA",37.983845,-122.571464,0.951,"range","geocoded",1160,1160,1160
"-1 Garnier St Torrance CA 90505","-1","Garnier St","","Torrance",NA,"","90505","","CA","Garnier St",90505,"Torrance","CA",33.810411,-118.338509,0.846,"street","geocoded",6511.01,6511.01,6511.01
"1 INDIAN HILL LN LAGUNA HILLS CA ","1","INDIAN HILL LN","","LAGUNA HILLS",NA,"CA","","625-381-75","CA",NA,NA,NA,NA,NA,NA,NA,NA,"imprecise_geocode",NA,NA,NA
"-1 Monterey St Torrance CA 90503","-1","Monterey St","","Torrance",NA,"","90503","","CA","Monterey St",90503,"Torrance","CA",33.829443,-118.332134,0.848,"street","geocoded",6508,6508,6508.01
"-1 None Los Angeles CA 90066","-1","None","","Los Angeles",NA,"","90066","","CA","N Forest Ave",90033,NA,NA,NA,NA,0.393,"street","imprecise_geocode",NA,NA,NA
"-1 Orange Grove Ave Glendale CA 91205","-1","Orange Grove Ave","","Glendale",NA,"","91205","","CA","Orange Grove Ave",91205,"Glendale","CA",34.143561,-118.245555,0.855,"street","geocoded",3022.01,3022.01,3022.01
"1 PALM DR UNION CITY CA 94587","1","PALM DR","","UNION CITY",NA,"","94587","543-326-10-8","CA","Palm Dr",94587,"Union City","CA",37.585873,-122.051236,0.957,"range","geocoded",4403.07,4403.07,4403.07
"1 Saddlewood Pl Pomona CA 91766","1","Saddlewood Pl","","Pomona",NA,"","91766","","CA","Saddlewood Pl",91766,"Pomona","CA",34.020755,-117.769757,0.932,"range","geocoded",4033.21,4033.21,4033.17
"1 TUNITAS CREEK RD  CA ","1","TUNITAS CREEK RD","","",NA,"","","81120040","CA",NA,NA,NA,NA,NA,NA,NA,NA,"imprecise_geocode",NA,NA,NA
"10 Atlantic Ave Long Beach CA 90802","10","Atlantic Ave","412","Long Beach",NA,"","90802","","CA","Atlantic Ave",90802,"Long Beach","CA",33.766617,-118.184948,0.945,"range","geocoded",5761,5760.01,5760.01
"10 Barika Ct Pacheco CA 94553","10","Barika Ct","","Pacheco",NA,"CA","94553","","CA","Barika Ct",94553,"Pacheco","CA",37.988068,-122.0636,0.943,"range","geocoded",3270,3270,3270.01
"10 CAMERON WAY  CA 94124","10","CAMERON WAY","","",NA,"","94124","","CA","Cameron Way",94124,"San Francisco","CA",37.720066,-122.388515,0.925,"range","geocoded",234,234,234
"10 DONNA MARIE CT  CA 95831","10","DONNA MARIE CT","","",NA,"","95831","3.1066E+12","CA","Donna Marie Ct",95831,"Sacramento","CA",38.489865,-121.537172,0.923,"range","geocoded",40.08,40.08,40.08
"10 LAURELWOOD DR NOVATO CA 94949","10","LAURELWOOD DR","","NOVATO",NA,"","94949","","CA","Laurelwood Dr",94949,"Novato","CA",38.069571,-122.553123,0.932,"range","geocoded",1041.01,1041.01,1041.04
"10 LINCOLN AVENUE Salinas CA 93901","10","LINCOLN AVENUE","133","Salinas",NA,"","93901","","CA","Lincoln Ave",93901,"Salinas","CA",36.678055,-121.657662,0.933,"range","geocoded",13,13,13
"10 Padilla Ct Danville CA 94526","10","Padilla Ct","","Danville",NA,"CA","94526","","CA","Padilla Ct",94526,"Danville","CA",37.789885,-121.979792,0.944,"range","geocoded",3451.05,3451.05,3451.05
"10 PARAMOUNT AVE  CA ","10","PARAMOUNT AVE","","",NA,"CA","","7723107008","CA",NA,NA,NA,NA,NA,NA,NA,NA,"imprecise_geocode",NA,NA,NA
"10 PROFESSIONAL CENTER PKWY SAN RAFAEL CA 94903","10","PROFESSIONAL CENTER PKWY","UNIT 16","SAN RAFAEL",NA,"","94903","","CA","Professional Center Pkwy",94903,"San Rafael","CA",38.009644,-122.540685,0.93,"range","geocoded",1060.01,1060.01,1060.01
"100 DOLLIVER ST PISMO BEACH CA 93449","100","DOLLIVER ST","209","PISMO BEACH",NA,"","93449","","CA","Dolliver St",93449,"Pismo Beach","CA",35.136971,-120.637897,0.949,"range","geocoded",117,117.01,117.05
"100 FOWLER AVE  CA 93611","100","FOWLER AVE","","",NA,"","93611","","CA","Fowler Ave",93611,"Clovis","CA",36.829892,-119.68197,0.912,"range","geocoded",57.02,57.01,57.01
"100 Kendall Way Town of Windsor CA 95492","100","Kendall Way","612","Town of Windsor",NA,"","95492","","CA","Kendall Way",95492,"Windsor","CA",38.528064,-122.780867,0.804,"range","geocoded",1538.03,1538.09,1538.09
"100 LOCKEWOOD LN SCOTTS VALLEY CA 95066","100","LOCKEWOOD LN","#122","SCOTTS VALLEY",NA,"","95066","","CA","Lockewood Ln",95066,"Scotts Valley","CA",37.047348,-122.035045,0.951,"range","geocoded",1208,1208,1208
"100 LONG BEACH BLVD  CA ","100","LONG BEACH BLVD","","",NA,"","","","CA",NA,NA,NA,NA,NA,NA,NA,NA,"imprecise_geocode",NA,NA,NA
"100 MARIN CENTER DR SAN RAFAEL CA 94903","100","MARIN CENTER DR","UNIT 30","SAN RAFAEL",NA,"","94903","","CA","Marin Center Dr",94903,"San Rafael","CA",38.008258,-122.540036,0.94,"range","geocoded",1060.01,1060.01,1060.01
"100 N EL RIO DR BAKERSFIELD CA 93309","100","N EL RIO DR","43","BAKERSFIELD",NA,"CA","93309","14433","CA","N el Rio Dr",93309,"Bakersfield","CA",35.355212,-119.082737,0.949,"range","geocoded",18.02,18.02,18.03
"100 N Whisman Rd Mountain View CA ","100","N Whisman Rd","UNIT 4012","Mountain View",NA,"","","","CA",NA,NA,NA,NA,NA,NA,NA,NA,"imprecise_geocode",NA,NA,NA
"100 N Whisman Rd Mountain View CA ","100","N Whisman Rd","UNIT 4512","Mountain View",NA,"","","","CA",NA,NA,NA,NA,NA,NA,NA,NA,"imprecise_geocode",NA,NA,NA
"100 OLYMPIC DRIVE Vallejo CA 94589","100","OLYMPIC DRIVE","","Vallejo",NA,"CA","94589","68482180","CA","Olympic Dr",94589,"Vallejo","CA",38.142716,-122.243417,0.935,"range","geocoded",2519.02,2519.02,2519.02
"100 PARKER AVE  CA 94118","100","PARKER AVE","302","",NA,"","94118","","CA","Parker Ave",94118,"San Francisco","CA",37.78403,-122.454618,0.917,"range","geocoded",154,154,154.02
"100 POINSETTIA GARDENS DR Ventura CA 93004","100","POINSETTIA GARDENS DR","","Ventura",NA,"","93004","","CA","Poinsettia Gardens Dr",93004,"Ventura","CA",34.287641,-119.14768,0.828,"street","geocoded",13.02,13.02,13.02
"100 PONOMA ST Port Hueneme CA 93041","100","PONOMA ST","","Port Hueneme",NA,"","93041","","CA","Ponoma St",93041,"Port Hueneme","CA",34.148019,-119.200027,0.956,"range","geocoded",44,43.05,43.05
"100 RODEO GULCH RD SOQUEL CA 95073","100","RODEO GULCH RD","#113","SOQUEL",NA,"","95073","","CA","N Rodeo Gulch Rd",95073,"Soquel","CA",36.98861,-121.969815,0.894,"range","geocoded",1213,1213,1213
"100 S SERANADO ST Orange CA ","100","S SERANADO ST","61","Orange",NA,"","","","CA",NA,NA,NA,NA,NA,NA,NA,NA,"imprecise_geocode",NA,NA,NA
"100 SHAWNEE AVE  CA 94112","100","SHAWNEE AVE","","",NA,"","94112","","CA","Shawnee Ave",94112,"San Francisco","CA",37.718264,-122.446263,0.917,"range","geocoded",261,261,261
"100 STERLING OAKS DR CHICO CA 95928","100","STERLING OAKS DR","#281","CHICO",NA,"","95928","","CA","Sterling Oaks Dr",95928,"Chico","CA",39.745086,-121.793691,0.827,"street","geocoded",9,9.04,9.04
"100 Via Copla Alamo CA 94507","100","Via Copla","","Alamo",NA,"CA","94507","","CA","Via Copla",94507,"Alamo","CA",37.838884,-122.029246,0.935,"range","geocoded",3452.01,3452.04,3452.04
"100 View St Mountain View CA ","100","View St","","Mountain View",NA,"","","","CA",NA,NA,NA,NA,NA,NA,NA,NA,"imprecise_geocode",NA,NA,NA
"100 W Broadway Long Beach CA 90802","100","W Broadway","1500","Long Beach",NA,"","90802","","CA","W Broadway",90802,"Long Beach","CA",33.769298,-118.193699,0.949,"range","geocoded",5759.02,5760.01,5760.01
"100 W MIDWAY DR ANAHEIM CA 92805","100","W MIDWAY DR","114","ANAHEIM",NA,"","92805","","CA","W Midway Dr",92805,"Anaheim","CA",33.812587,-117.911055,0.816,"street","geocoded",874.03,874.03,874.03
"1000 BEAR GULCH RD  CA ","1000","BEAR GULCH RD","","",NA,"","","81310140","CA",NA,NA,NA,NA,NA,NA,NA,NA,"imprecise_geocode",NA,NA,NA
"1000 Bellevue Ave City of Santa Rosa CA 95407","1000","Bellevue Ave","","City of Santa Rosa",NA,"","95407","","CA","Bellevue Ave",95407,"Santa Rosa","CA",38.401718,-122.711931,0.817,"range","geocoded",1514.02,1514.02,1514.05
"1000 E B ST  CA ","1000","E B ST","","",NA,"","","","CA",NA,NA,NA,NA,NA,NA,NA,NA,"imprecise_geocode",NA,NA,NA
"1000 E Maple St Glendale CA 91205","1000","E Maple St","6","Glendale",NA,"","91205","","CA","E Maple St",91205,"Glendale","CA",34.138949,-118.242582,0.944,"range","geocoded",3025.01,3025.03,3025.03
"1000 Flowering Ash Dr Hercules CA 94547","1000","Flowering Ash Dr","","Hercules",NA,"CA","94547","","CA","Flowering Ash Dr",94547,"Hercules","CA",38.020998,-122.268967,0.934,"range","geocoded",3591.01,3923,3923
"1000 MELROSE AVE  CA 95678","1000","MELROSE AVE","","",NA,"","95678","","CA","Melrose Ave",95678,"Roseville","CA",38.740805,-121.279038,0.938,"range","geocoded",208,208.06,208.06
"1000 N MAIN ST LONE PINE CA ","1000","N MAIN ST","","LONE PINE",NA,"","","","CA",NA,NA,NA,NA,NA,NA,NA,NA,"imprecise_geocode",NA,NA,NA
"1000 N WANDA DR ANAHEIM CA 92805","1000","N WANDA DR","","ANAHEIM",NA,"","92805","","CA","N Wanda Dr",92805,"Anaheim","CA",33.84727,-117.898917,0.94,"range","geocoded",864.04,864.04,864.05
"1000 PENNSYLVANIA AVE  CA 94107","1000","PENNSYLVANIA AVE","2","",NA,"","94107","","CA","Pennsylvania Ave",94107,"San Francisco","CA",37.753841,-122.392864,0.921,"range","geocoded",227.03,614,614.02
"1000 PINE ST  CA 94109","1000","PINE ST","204 C","",NA,"","94109","","CA","Pine St",94109,"San Francisco","CA",37.790672,-122.412266,0.917,"range","geocoded",119,119.01,119.01
"1000 SOMERSET LN NEWPORT BEACH CA ","1000","SOMERSET LN","","NEWPORT BEACH",NA,"CA","","117-462-05","CA",NA,NA,NA,NA,NA,NA,NA,NA,"imprecise_geocode",NA,NA,NA
"1001 E EVELYN TER E SUNNYVALE CA 94086","1001","E EVELYN TER E","142","SUNNYVALE",NA,"","94086","","CA","Evelyn Ter E",94086,"Sunnyvale","CA",37.37073,-122.007,0.897,"range","geocoded",5087.03,5087.03,5087.06
"1001 MARIPOSA ST  CA 94107","1001","MARIPOSA ST","308","",NA,"","94107","","CA","Mariposa St",94107,"San Francisco","CA",37.764021,-122.39373,0.917,"range","geocoded",227.02,227.02,227.02
"1001 S MT VERNON AVE BAKERSFIELD CA 93307","1001","S MT VERNON AVE","","BAKERSFIELD",NA,"CA","93307","11894","CA","S Mount Vernon Ave",93307,"Bakersfield","CA",35.343443,-118.967527,0.893,"range","geocoded",24,24,24.03
"1001 Stanislaus Way City of Santa Rosa CA 95401","1001","Stanislaus Way","","City of Santa Rosa",NA,"","95401","","CA","Stanislaus Way",95401,"Santa Rosa","CA",38.442483,-122.759907,0.826,"range","geocoded",1530.06,1530.06,1530.06
"1001 UNIVERSITY DR  CA ","1001","UNIVERSITY DR","","",NA,"","","71272140","CA",NA,NA,NA,NA,NA,NA,NA,NA,"imprecise_geocode",NA,NA,NA
"10012 SAN MARCOS RD ATASCADERO CA 93422","10012","SAN MARCOS RD","","ATASCADERO",NA,"","93422","","CA","San Marcos Rd",93422,"Atascadero","CA",35.469633,-120.68607,0.846,"street","geocoded",127.04,127.04,127.06
"10016 SAN DIEGO ST BAKERSFIELD CA 93241","10016","SAN DIEGO ST","","BAKERSFIELD",NA,"CA","93241","95814","CA","San Diego St",93241,"Lamont","CA",35.264133,-118.918703,0.768,"range","geocoded",64.02,64.03,64.03
"10018 HUNTINGTON DOWNS  CA ","10018","HUNTINGTON DOWNS","","",NA,"","","","CA",NA,NA,NA,NA,NA,NA,NA,NA,"imprecise_geocode",NA,NA,NA
"10019 RIVERHEAD DR San Diego CA 92129","10019","RIVERHEAD DR","","San Diego",NA,"CA","92129","3120830100","CA","Riverhead Dr",92129,"San Diego","CA",32.968336,-117.113072,0.942,"range","geocoded",170.33,170.33,170.33
"1002 JACOBS Marysville CA ","1002","JACOBS","","Marysville",NA,"","","","CA",NA,NA,NA,NA,NA,NA,NA,NA,"imprecise_geocode",NA,NA,NA
"1002 O ST  CA 95814","1002","O ST","","",NA,"","95814","6.0214E+11","CA","O St",95814,"Sacramento","CA",38.574687,-121.49587,0.912,"range","geocoded",9,11.01,11.03
"10020 San Gabriel Ave South Gate CA 90280","10020","San Gabriel Ave","","South Gate",NA,"","90280","","CA","San Gabriel Ave",90280,"South Gate","CA",33.942989,-118.204307,0.94,"range","geocoded",5358.02,5358.02,5358.02
"10026 Lampson St Whittier CA 90601","10026","Lampson St","","Whittier",NA,"","90601","","CA","Lampson St",90601,"Whittier","CA",34.00976,-118.061064,0.944,"range","geocoded",5004.01,5004.03,5004.03
"10028 SIERRA MADRE RD Spring Valley CA 91977","10028","SIERRA MADRE RD","","Spring Valley",NA,"CA","91977","5011812200","CA","Sierra Madre Rd",91977,"Spring Valley","CA",32.751037,-116.979313,0.946,"range","geocoded",136.01,136.01,136.01
"1003 E 24th St Los Angeles CA 90011","1003","E 24th St","","Los Angeles",NA,"","90011","","CA","E 24th St",90011,"Los Angeles","CA",34.022038,-118.257463,0.914,"range","geocoded",2264.2,2264.2,2264.2
"1003 E El Monte Way DINUBA CA 93618","1003","E El Monte Way","#2","DINUBA",NA,"","93618","","CA","E el Monte Way",93618,"Dinuba","CA",36.545738,-119.384845,0.93,"range","geocoded",4.02,4.02,4.02
"1003 Marie Ave Martinez CA 94553","1003","Marie Ave","","Martinez",NA,"CA","94553","","CA","Marie Ave",94553,"Martinez","CA",38.004365,-122.104041,0.946,"range","geocoded",3200.02,3200.03,3200.03
"1003 N Oakwood Ct VISALIA CA 93291","1003","N Oakwood Ct","","VISALIA",NA,"","93291","","CA","N Oakwood Ct",93291,"Visalia","CA",36.338462,-119.349189,0.937,"range","geocoded",10.06,10.06,10.06
"1003 SERENE RD  CA 95728","1003","SERENE RD","","",NA,"","95728","","CA","Serene Rd",95728,"The Cedars","CA",39.294456,-120.383269,0.922,"range","geocoded",220.01,220.14,220.14
"10030 CHURCH STREET Truckee CA 96161","10030","CHURCH STREET","","Truckee",NA,"CA","96161","1911006000","CA","Church St",96161,"Truckee","CA",39.329064,-120.183305,0.935,"range","geocoded",12.01,12.06,12.07
"10030 Marsh Creek Rd Clayton CA 94517","10030","Marsh Creek Rd","","Clayton",NA,"CA","94517","","CA","Marsh Creek Rd",94517,"Clayton","CA",37.912266,-121.884979,0.933,"range","geocoded",3553.03,3553.06,3553.06
"10036 SANTA CRUZ DESERT HOT SPRINGS CA 92240","10036","SANTA CRUZ","","DESERT HOT SPRINGS",NA,"","92240","","CA","Santa Cruz Rd",92240,"Desert Hot Springs","CA",33.975701,-116.505457,0.895,"range","geocoded",445.08,445.18,445.18
"1004 91ST AV OAKLAND CA 94603","1004","91ST AV","","OAKLAND",NA,"","94603","44-4958-38-1","CA","91st Ave",94603,"Oakland","CA",37.746192,-122.180313,0.861,"range","geocoded",4094,4094,4094
"1004 Thicket Dr Carson CA 90746","1004","Thicket Dr","","Carson",NA,"","90746","","CA","Thicket Dr",90746,"Carson","CA",33.869744,-118.255274,0.937,"range","geocoded",5433.21,5433.21,5433.21
"10040 Benares Pl Sun Valley CA 91352","10040","Benares Pl","","Sun Valley",NA,"","91352","","CA","Benares Pl",91352,"Sun Valley","CA",34.218766,-118.348428,0.949,"range","geocoded",1021.02,1021.04,1021.04
"10040 Sorcerer Wood Sea Ranch CA 95412","10040","Sorcerer Wood","","Sea Ranch",NA,"","95412","","CA","Sorcerer Wood",95412,"Annapolis","CA",38.709487,-123.434586,0.784,"range","geocoded",1543.01,1543.03,1543.08
"10044 BIANCHI WAY CUPERTINO CA 95014","10044","BIANCHI WAY","","CUPERTINO",NA,"CA","95014","","CA","Bianchi Way",95014,"Cupertino","CA",37.322575,-122.039602,0.944,"range","geocoded",5077.01,5077.01,5077.01
"1005 King Ave Wilmington CA 90744","1005","King Ave","","Wilmington",NA,"","90744","","CA","King Ave",90744,"Wilmington","CA",33.782267,-118.275765,0.954,"range","geocoded",2943,2943.02,2943.02
"1005 ROLDAN AVE Simi Valley CA 93065","1005","ROLDAN AVE","","Simi Valley",NA,"","93065","","CA","Roldan Ave",93065,"Simi Valley","CA",34.257132,-118.760598,0.951,"range","geocoded",80.04,80.04,80.04
"10050 Pinewood Ave Tujunga CA 91042","10050","Pinewood Ave","","Tujunga",NA,"","91042","","CA","Pinewood Ave",91042,"Tujunga","CA",34.251194,-118.285849,0.937,"range","geocoded",1012.2,1012.2,1012.2
"10051 MEADOW LN SAN JOSE CA 95127","10051","MEADOW LN","","SAN JOSE",NA,"","95127","","CA","Meadow Ln",95127,"San Jose","CA",37.361482,-121.81278,0.946,"range","geocoded",5041.02,5041.02,5041.02
"10053 LOS COYOTES CT FOUNTAIN VALLEY CA ","10053","LOS COYOTES CT","","FOUNTAIN VALLEY",NA,"CA","","156-063-23","CA",NA,NA,NA,NA,NA,NA,NA,NA,"imprecise_geocode",NA,NA,NA
"10057 Lev Ave Pacoima CA 91331","10057","Lev Ave","","Pacoima",NA,"","91331","","CA","Lev Ave",91331,"Pacoima","CA",34.25324,-118.436513,0.948,"range","geocoded",1191,1190.02,1190.03
"1006 E HOGAN AVE  CA 93730","1006","E HOGAN AVE","","",NA,"","93730","","CA","E Hogan Ave",93730,"Fresno","CA",36.89467,-119.765206,0.911,"range","geocoded",55.06,55.17,55.29
"1006 LIVE OAK DR SANTA CLARA CA 95051","1006","LIVE OAK DR","","SANTA CLARA",NA,"","95051","","CA","Live Oak Dr",95051,"Santa Clara","CA",37.344828,-121.984425,0.949,"range","geocoded",5054.03,5054.03,5054.03
"1006 MELWOOD ST BAKERSFIELD CA 93307","1006","MELWOOD ST","","BAKERSFIELD",NA,"CA","93307","6053","CA","Melwood St",93307,"Bakersfield","CA",35.333215,-118.987381,0.951,"range","geocoded",25,25,25.03
"1006 S Normandie Ave Los Angeles CA 90006","1006","S Normandie Ave","","Los Angeles",NA,"","90006","","CA","S Normandie Ave",90006,"Los Angeles","CA",34.052527,-118.299928,0.942,"range","geocoded",2133.1,2133.1,2133.1
"10066 FUERTE DR La Mesa CA 91941","10066","FUERTE DR","","La Mesa",NA,"CA","91941","4960712900","CA","Fuerte Dr",91941,"La Mesa","CA",32.773017,-116.978908,0.943,"range","geocoded",153.02,153.02,153.02
"1007 W 213th St Torrance CA 90502","1007","W 213th St","","Torrance",NA,"","90502","","CA","W 213th St",90502,"Torrance","CA",33.835134,-118.29283,0.973,"range","geocoded",5435.03,5435.03,5435.03
"10070 FIRWOOD DR CUPERTINO CA 95014","10070","FIRWOOD DR","","CUPERTINO",NA,"CA","95014","","CA","Firwood Dr",95014,"Cupertino","CA",37.321154,-122.07427,0.946,"range","geocoded",5077.03,5077.03,5077.05
"10070 WILLOW CREEK RD San Diego CA 92131","10070","WILLOW CREEK RD","","San Diego",NA,"CA","92131","3632901900","CA","Willow Creek Rd",92131,"San Diego","CA",32.901759,-117.11078,0.938,"range","geocoded",170.22,170.22,170.22
"1008 57TH ST OAKLAND CA 94608","1008","57TH ST","","OAKLAND",NA,"","94608","15-1303-4","CA","57th St",94608,"Emeryville","CA",37.841108,-122.278718,0.677,"range","geocoded",4009,4009,4009
"1008 CLYDE  CA ","1008","CLYDE","","",NA,"","","","CA",NA,NA,NA,NA,NA,NA,NA,NA,"imprecise_geocode",NA,NA,NA
"1008 S HIGHLAND AV FULLERTON CA ","1008","S HIGHLAND AV","","FULLERTON",NA,"CA","","073-072-12","CA",NA,NA,NA,NA,NA,NA,NA,NA,"imprecise_geocode",NA,NA,NA
"10089 ZAPATA AVE San Diego CA 92126","10089","ZAPATA AVE","","San Diego",NA,"CA","92126","3093222000","CA","Zapata Ave",92126,"San Diego","CA",32.924359,-117.152019,0.946,"range","geocoded",83.47,83.47,83.47
"1009 ADELAIDE AVE BAKERSFIELD CA 93307","1009","ADELAIDE AVE","","BAKERSFIELD",NA,"CA","93307","205395","CA","Adelaide Ave",93307,"Bakersfield","CA",35.299003,-119.012976,0.947,"range","geocoded",31.22,31.22,31.28
"1009 CHERRY AVE BEAUMONT CA 92223","1009","CHERRY AVE","","BEAUMONT",NA,"","92223","","CA","Cherry Ave",92223,"Cherry Valley","CA",33.935121,-116.964344,0.773,"street","geocoded",439,439,439
"1009 S ROBINSON ST BAKERSFIELD CA 93307","1009","S ROBINSON ST","","BAKERSFIELD",NA,"CA","93307","121451","CA","S Robinson St",93307,"Bakersfield","CA",35.366665,-118.988612,0.945,"range","geocoded",22,22,22.02
"1009 W HICKORY AVE LOMPOC CA 93436","1009","W HICKORY AVE","","LOMPOC",NA,"","93436","091-231-004","CA","W Hickory Ave",93436,"Lompoc","CA",34.635633,-120.469077,0.932,"range","geocoded",27.07,27.07,27.07
"10091 RIVER FALLS CI  CA ","10091","RIVER FALLS CI","","",NA,"","","7021003","CA",NA,NA,NA,NA,NA,NA,NA,NA,"imprecise_geocode",NA,NA,NA
"101 BAY SHORE BLVD  CA 94124","101","BAY SHORE BLVD","","",NA,"","94124","","CA","Bay Shore Blvd",94124,"San Francisco","CA",37.747205,-122.403592,0.916,"range","geocoded",609,9809,9809
"101 E KATELLA AV ANAHEIM CA ","101","E KATELLA AV","","ANAHEIM",NA,"CA","","082-230-77","CA",NA,NA,NA,NA,NA,NA,NA,NA,"imprecise_geocode",NA,NA,NA
"101 FRIEND ST KTC CA 93239","101","FRIEND ST","","KTC",NA,"","93239","","CA","Friend St",93239,"Kettleman City","CA",36.007171,-119.95846,0.826,"range","geocoded",16.01,16.01,16.01
"101 JUSTIN DR  CA 94110","101","JUSTIN DR","","",NA,"","94110","","CA","Justin Dr",94112,NA,NA,37.733843,-122.422378,0.805,"range","geocoded",254.03,254.03,254.03
"101 Morris St City of Sebastopol CA 95472","101","Morris St","207","City of Sebastopol",NA,"","95472","","CA","Morris St",95472,"Sebastopol","CA",38.405256,-122.819632,0.8,"range","geocoded",1534.01,1534.01,1534.06
"101 REBECCA WAY  CA 95630","101","REBECCA WAY","","",NA,"","95630","7.1049E+12","CA","Rebecca Way",95630,"Folsom","CA",38.684798,-121.1492,0.902,"range","geocoded",84.02,84.02,84.02
"101 ROSE LN  CA ","101","ROSE LN","","",NA,"","","48449026","CA",NA,NA,NA,NA,NA,NA,NA,NA,"imprecise_geocode",NA,NA,NA
"101 SHELL DR WATSONVILLE CA 95076","101","SHELL DR","#295","WATSONVILLE",NA,"","95076","","CA","Shell Dr",95076,"Watsonville","CA",36.877904,-121.825733,0.859,"street","geocoded",1223,1223,1223
"101 STARDUST LN Ventura CA 93004","101","STARDUST LN","","Ventura",NA,"","93004","","CA","Stardust Ln",93004,"Ventura","CA",34.29378,-119.157049,0.841,"street","geocoded",12.01,12.01,12.01
"101 TERRACE VISTA LN SANTA BARBARA CA 93103","101","TERRACE VISTA LN","","SANTA BARBARA",NA,"","93103","015-180-009","CA","US Hwy 101",93117,NA,NA,NA,NA,0.347,"street","imprecise_geocode",NA,NA,NA
"101 W RIVERDALE ORANGE CA ","101","W RIVERDALE","46","ORANGE",NA,"","","","CA",NA,NA,NA,NA,NA,NA,NA,NA,"imprecise_geocode",NA,NA,NA
"1010 BALDWIN RD BAKERSFIELD CA 93304","1010","BALDWIN RD","","BAKERSFIELD",NA,"CA","93304","117350","CA","Baldwin Rd",93304,"Bakersfield","CA",35.345373,-119.028876,0.951,"range","geocoded",27,27,27.01
"1010 Ohio Ave Richmond CA 94804","1010","Ohio Ave","","Richmond",NA,"CA","94804","","CA","Ohio Ave",94804,"Richmond","CA",37.930719,-122.360001,0.948,"range","geocoded",3790,3790,3790
"1010 S Jaye St PORTERVILLE CA 93257","1010","S Jaye St","","PORTERVILLE",NA,"","93257","","CA","S Jaye St",93257,"East Porterville","CA",36.047423,-119.026199,0.972,"range","geocoded",41.02,41.02,41.02
"1010 S La Brea Ave Los Angeles CA 90019","1010","S La Brea Ave","","Los Angeles",NA,"","90019","","CA","S la Brea Ave",90019,"Los Angeles","CA",34.056667,-118.345523,0.945,"range","geocoded",2162,2162,2162.02
"1010 W TERRACE AVE  CA 93705","1010","W TERRACE AVE","","",NA,"","93705","","CA","W Terrace Ave",93705,"Fresno","CA",36.773009,-119.823202,0.827,"range","geocoded",37,37.02,37.02
"10100 Empyrean Wy Los Angeles CA 90067","10100","Empyrean Wy","","Los Angeles",NA,"","90067","","CA","Empyrean Way",90067,"Los Angeles","CA",34.054078,-118.408778,0.925,"range","geocoded",2679,2679.01,2679.01
"10100 Janetta Wy Sunland CA 91040","10100","Janetta Wy","","Sunland",NA,"","91040","","CA","Janetta Way",91040,"Sunland","CA",34.254138,-118.366712,0.914,"range","geocoded",1033,1033,1033
"10104 PINEWOOD VIEW Santee CA 92071","10104","PINEWOOD VIEW","","Santee",NA,"CA","92071","3812721700","CA","Pinewood Vw",92071,"Santee","CA",32.864697,-116.977455,0.932,"range","geocoded",166.09,166.09,166.09
"10108 Camarillo St North Hollywood CA 91602","10108","Camarillo St","","North Hollywood",NA,"","91602","","CA","Camarillo St",91602,"North Hollywood","CA",34.158175,-118.351848,0.955,"range","geocoded",1256,1256,1256
"10109 MERRIWEATHER DR BAKERSFIELD CA 93311","10109","MERRIWEATHER DR","A","BAKERSFIELD",NA,"CA","93311","67125","CA","Merriweather Dr",93311,"Bakersfield","CA",35.310122,-119.114844,0.942,"range","geocoded",31.23,31.23,31.34
"10109 Mountair Ave Tujunga CA 91042","10109","Mountair Ave","","Tujunga",NA,"","91042","","CA","Mountair Ave",91042,"Tujunga","CA",34.252473,-118.293253,0.937,"range","geocoded",1012.1,1012.1,1012.21
"1011 AZURE CT  CA 95678","1011","AZURE CT","","",NA,"","95678","","CA","Azure Ct",95678,"Antelope","CA",38.737935,-121.278275,0.915,"range","geocoded",208,208.06,208.06
"1011 Rolling Woods Way Concord CA 94521","1011","Rolling Woods Way","","Concord",NA,"CA","94521","","CA","Rolling Woods Way",94521,"Concord","CA",37.933157,-121.971503,0.93,"range","geocoded",3553.01,3553.01,3553.09
"1011 W Avenue H2 Lancaster CA 93534","1011","W Avenue H2","","Lancaster",NA,"","93534","","CA","W Ave H",93534,"Lancaster","CA",34.718794,-118.166122,1,"range","geocoded",9009,9009,9009.01
"10114 Petaluma Pl Sun Valley CA 91352","10114","Petaluma Pl","","Sun Valley",NA,"","91352","","CA","Petaluma Pl",91352,"Sun Valley","CA",34.224065,-118.350763,0.947,"range","geocoded",1021.02,1021.03,1021.03
"10118 S Broadway Los Angeles CA 90003","10118","S Broadway","","Los Angeles",NA,"","90003","","CA","S Broadway",90003,"Los Angeles","CA",33.944475,-118.278077,0.951,"range","geocoded",2405,2405,2405
"1012 57TH ST OAKLAND CA 94608","1012","57TH ST","","OAKLAND",NA,"","94608","15-1303-5","CA","57th St",94608,"Emeryville","CA",37.841072,-122.278953,0.677,"range","geocoded",4009,4009,4009
"1012 N Louise St Glendale CA 91207","1012","N Louise St","5","Glendale",NA,"","91207","","CA","N Louise St",91207,"Glendale","CA",34.160397,-118.252602,0.941,"range","geocoded",3011,3011,3011
"1012 PARDEE ST BERKELEY CA 94710","1012","PARDEE ST","","BERKELEY",NA,"","94710","54-1745-24","CA","Pardee St",94710,"Berkeley","CA",37.856815,-122.289915,0.946,"range","geocoded",4220,4220,4220
"1012 S Tajauta Ave Compton CA 90220","1012","S Tajauta Ave","","Compton",NA,"","90220","","CA","S Tajauta Ave",90220,"Compton","CA",33.886627,-118.245822,0.935,"range","geocoded",5431,5431,5431
"1012 Santee St Los Angeles CA 90015","1012","Santee St","","Los Angeles",NA,"","90015","","CA","Santee St",90015,"Los Angeles","CA",34.038713,-118.25505,0.954,"range","geocoded",2079,2079,2079.02
"1012 W 19TH ST COSTA MESA CA ","1012","W 19TH ST","","COSTA MESA",NA,"CA","","422-532-23","CA",NA,NA,NA,NA,NA,NA,NA,NA,"imprecise_geocode",NA,NA,NA
"1012 W KNICKERBOCKER DR SUNNYVALE CA 94087","1012","W KNICKERBOCKER DR","","SUNNYVALE",NA,"","94087","","CA","W Knickerbocker Dr",94087,"Sunnyvale","CA",37.362343,-122.051207,0.934,"range","geocoded",5084.01,5084.01,5084.01
"10121 KUKUI DR HUNTINGTON BEACH CA ","10121","KUKUI DR","","HUNTINGTON BEACH",NA,"CA","","155-294-11","CA",NA,NA,NA,NA,NA,NA,NA,NA,"imprecise_geocode",NA,NA,NA
"10124 ALTA SIERRA DRIVE Grass Valley CA 95949","10124","ALTA SIERRA DRIVE","","Grass Valley",NA,"CA","95949","2543010000","CA","Alta Sierra Dr",95949,"Grass Valley","CA",39.141097,-121.069172,0.941,"range","geocoded",1.04,1.04,1.04
"10130 FRAZIER RD Redding CA ","10130","FRAZIER RD","","Redding",NA,"","","","CA",NA,NA,NA,NA,NA,NA,NA,NA,"imprecise_geocode",NA,NA,NA
"10134 PALOMINO AVE JURUPA VALLEY CA 92509","10134","PALOMINO AVE","","JURUPA VALLEY",NA,"","92509","","CA","Palomino Ave",92509,"Riverside","CA",33.993298,-117.503818,0.764,"range","geocoded",404.03,404.03,404.03
"10138 RIVER FALLS CI  CA ","10138","RIVER FALLS CI","","",NA,"","","7021038","CA",NA,NA,NA,NA,NA,NA,NA,NA,"imprecise_geocode",NA,NA,NA
"1014 E EVANS ST SAN JACINTO CA 92583","1014","E EVANS ST","","SAN JACINTO",NA,"","92583","","CA","E Evans St",92583,"San Jacinto","CA",33.775281,-116.943233,0.951,"range","geocoded",435.11,435.12,435.12
"1014 Highway Esplanade Monrovia CA 91016","1014","Highway Esplanade","","Monrovia",NA,"","91016","","CA","Highway Esplanade",91016,"Monrovia","CA",34.141011,-118.011696,0.864,"range","geocoded",4309,4309.01,4309.01
"1014 WASHINGTON ST  CA 94108","1014","WASHINGTON ST","","",NA,"","94108","","CA","Washington St",94108,"Chinatown","CA",37.794689,-122.410073,0.94,"range","geocoded",112,112,112
"10140 Dempsey Ave North Hills CA 91343","10140","Dempsey Ave","","North Hills",NA,"","91343","","CA","Dempsey Ave",91343,"North Hills","CA",34.254764,-118.477152,0.949,"range","geocoded",1098,1098,1098
"10144 Balboa Blvd Granada Hills CA 91344","10144","Balboa Blvd","","Granada Hills",NA,"","91344","","CA","Balboa Blvd",91344,"Granada Hills","CA",34.254693,-118.502288,0.953,"range","geocoded",1114,1114,1114.01
"10144 Culver Blvd Culver City CA 90232","10144","Culver Blvd","16","Culver City",NA,"","90232","","CA","Culver Blvd",90232,"Culver City","CA",34.018837,-118.39847,0.949,"range","geocoded",7025.01,7025.01,7025.01
"10144 HIGH STREET Truckee CA 96161","10144","HIGH STREET","","Truckee",NA,"CA","96161","1910302000","CA","High St",96161,"Truckee","CA",39.328887,-120.186535,0.938,"range","geocoded",12.01,12.06,12.09
"1015 AMBER LOOP Grass Valley CA 95945","1015","AMBER LOOP","","Grass Valley",NA,"CA","95945","9701057000","CA","Amber Loop",95945,"Grass Valley","CA",39.230524,-121.039375,0.953,"range","geocoded",6,6,6.01
"1015 Avonoak Ter Glendale CA 91206","1015","Avonoak Ter","","Glendale",NA,"","91206","","CA","Avonoak Ter",91206,"Glendale","CA",34.160055,-118.233517,0.941,"range","geocoded",3010,3010,3010
"1015 MAPLE AVENUE Vallejo CA 94591","1015","MAPLE AVENUE","","Vallejo",NA,"CA","94591","71281150","CA","Maple Ave",94591,"Vallejo","CA",38.103021,-122.221117,0.937,"range","geocoded",2503,2503,2503
"1015 MARGARITA DR CORONA CA 92879","1015","MARGARITA DR","D103","CORONA",NA,"","92879","","CA","Margarita Dr",92879,"Corona","CA",33.873173,-117.556175,0.933,"range","geocoded",416,416,416.02
"1015 S Stoneacre Ave Compton CA 90221","1015","S Stoneacre Ave","","Compton",NA,"","90221","","CA","S Stoneacre Ave",90221,"East Compton","CA",33.887697,-118.195511,0.945,"range","geocoded",5422,5422,5422
"1015 SAN MATEO DR  CA ","1015","SAN MATEO DR","","",NA,"","","71221090","CA",NA,NA,NA,NA,NA,NA,NA,NA,"imprecise_geocode",NA,NA,NA
"10150 WRANGLER WAY CORONA CA 92883","10150","WRANGLER WAY","","CORONA",NA,"","92883","","CA","Wrangler Way",92883,"Corona","CA",33.761358,-117.482186,0.933,"range","geocoded",419.08,419.1,419.1
"10151 ARROW RTE UNIT 41 RANCHO CUCAMONGA CA 91730","10151","ARROW RTE UNIT 41","","RANCHO CUCAMONGA",NA,"CA","91730","20953203","CA","Arrow Rte",91730,"Rancho Cucamonga","CA",34.099203,-117.58317,0.862,"range","geocoded",21,21.07,21.07
"10151 FREMONT ST YUCAIPA CA 92399","10151","FREMONT ST","","YUCAIPA",NA,"CA","92399","32021180","CA","Fremont St",92399,"Yucaipa","CA",34.069964,-117.025754,0.94,"range","geocoded",87.03,87.03,87.11
"10151 STILBITE AV FOUNTAIN VALLEY CA ","10151","STILBITE AV","","FOUNTAIN VALLEY",NA,"CA","","108-032-12","CA",NA,NA,NA,NA,NA,NA,NA,NA,"imprecise_geocode",NA,NA,NA
"10154 CRAWFORD WAY  CA 95827","10154","CRAWFORD WAY","","",NA,"","95827","7.70163E+12","CA","Crawford Way",95827,"Sacramento","CA",38.570235,-121.315933,0.911,"range","geocoded",90.06,90.06,90.06
"10155 SNOWY OWL WAY  CA 95603","10155","SNOWY OWL WAY","","",NA,"","95603","","CA","Snowy Owl Way",95603,"Cherry Creek Acres","CA",38.871635,-121.069464,0.919,"range","geocoded",204,204.02,204.02
"1016 Chase Wy West Covina CA 91792","1016","Chase Wy","","West Covina",NA,"","91792","","CA","Chase Way",91792,"West Covina","CA",34.043536,-117.924954,0.924,"range","geocoded",4079,4079,4079.02
"1016 CORDELIA CT CHICO CA 95926","1016","CORDELIA CT","","CHICO",NA,"","95926","","CA","Cordelia Ct",95926,"Chico","CA",39.731603,-121.871807,0.931,"range","geocoded",5.01,5.01,5.01
"10160 MELLO PL CUPERTINO CA 95014","10160","MELLO PL","","CUPERTINO",NA,"CA","95014","","CA","Mello Pl",95014,"Cupertino","CA",37.321031,-122.021512,0.951,"range","geocoded",5080.01,5080.01,5080.06
"10165 CAROL LEE DR CUPERTINO CA 95014","10165","CAROL LEE DR","","CUPERTINO",NA,"","95014","","CA","Carol Lee Dr",95014,"Cupertino","CA",37.325308,-122.025186,0.942,"range","geocoded",5081.01,5081.01,5081.01
"10168 N PORTAL AVE CUPERTINO CA 95014","10168","N PORTAL AVE","","CUPERTINO",NA,"","95014","","CA","N Portal Ave",95014,"Cupertino","CA",37.325411,-122.019523,0.942,"range","geocoded",5081.01,5081.01,5081.01
"10168 PRAIRIE FAWN DR San Diego CA 92127","10168","PRAIRIE FAWN DR","","San Diego",NA,"CA","92127","6785402000","CA","Prairie Fawn Dr",92127,"San Diego","CA",33.016883,-117.114079,0.938,"range","geocoded",170.32,170.32,170.7
"10169 SADDLEHILL TER RANCHO CUCAMONGA CA 91737","10169","SADDLEHILL TER","","RANCHO CUCAMONGA",NA,"CA","91737","20158411","CA","Saddlehill Ter",91737,"Alta Loma","CA",34.147563,-117.583152,0.764,"range","geocoded",20.02,20.18,20.18
"1017 DELAWARE ST Imperial Beach CA 91932","1017","DELAWARE ST","","Imperial Beach",NA,"CA","91932","6263851700","CA","Delaware St",91932,"Imperial Beach","CA",32.578593,-117.117184,0.955,"range","geocoded",103,103,103
"1017 DREXEL CIR Thousand Oaks CA 91360","1017","DREXEL CIR","","Thousand Oaks",NA,"","91360","","CA","Drexel Cir",91360,"Thousand Oaks","CA",34.192685,-118.877562,0.955,"range","geocoded",69,69,69
"1017 SIEBER STREET Salinas CA 93905","1017","SIEBER STREET","7","Salinas",NA,"","93905","","CA","Sieber Ave",93905,"Salinas","CA",36.68729,-121.615013,0.847,"range","geocoded",7,7.02,7.02
"10172 SILVER ROCK RD PINON HILLS CA 92372","10172","SILVER ROCK RD","","PINON HILLS",NA,"CA","92372","306733115","CA","Silver Rock Rd",92372,"Pinon Hills","CA",34.434834,-117.616404,0.944,"range","geocoded",91.07,91.07,91.2
"10179 VAN PARKER LN  CA 95632","10179","VAN PARKER LN","","",NA,"","95632","1.48024E+13","CA","Van Parker Ln",95632,"Galt","CA",38.2865,-121.315375,0.917,"range","geocoded",95.03,95.03,95.03
"1018 Bradshawe Ave Monterey Park CA 91754","1018","Bradshawe Ave","","Monterey Park",NA,"","91754","","CA","Bradshawe Ave",91754,"Monterey Park","CA",34.049142,-118.132902,0.949,"range","geocoded",4821.02,4821.02,4821.02
"1018 BUENA VISTA AV ALAMEDA CA 94501","1018","BUENA VISTA AV","","ALAMEDA",NA,"","94501","73-384-23","CA","Buena Vista Ave",94501,"Alameda","CA",37.776903,-122.267568,0.894,"range","geocoded",4273,4273,4273
"1018 CHARLESTON CIR  CA 95661","1018","CHARLESTON CIR","","",NA,"","95661","","CA","Charleston Cir",95661,"Roseville","CA",38.734053,-121.265509,0.916,"range","geocoded",207.02,207.13,207.13
"1018 E AIRPORT AVE LOMPOC CA 93436","1018","E AIRPORT AVE","","LOMPOC",NA,"","93436","087-171-002","CA","E Airport Ave",93436,"Lompoc","CA",34.6485,-120.445746,0.932,"range","geocoded",27.06,27.06,27.06
"1018 FULTON MALL  CA 93721","1018","FULTON MALL","","",NA,"","93721","","CA","Fulton St",93721,"Fresno","CA",36.731915,-119.787955,0.62,"street","geocoded",6,6,6.02
"1018 IVY LN FORTUNA CA  ","1018","IVY LN","","FORTUNA",NA,""," ","","CA",NA,NA,NA,NA,NA,NA,NA,NA,"imprecise_geocode",NA,NA,NA
"1018 PARDEE ST BERKELEY CA 94710","1018","PARDEE ST","","BERKELEY",NA,"","94710","54-1745-28-2","CA","Pardee St",94710,"Berkeley","CA",37.856822,-122.289591,0.946,"range","geocoded",4220,4220,4220
"1018 S Brand Blvd Glendale CA 91205","1018","S Brand Blvd","","Glendale",NA,"","91205","","CA","S Brand Blvd",91204,NA,NA,34.134304,-118.255065,0.683,"range","geocoded",3024,3024.01,3024.01
"1018 W Olive Ave Burbank CA 91506","1018","W Olive Ave","","Burbank",NA,"","91506","","CA","W Olive Ave",91506,"Burbank","CA",34.172357,-118.317553,0.938,"range","geocoded",3108,3108,3108
"10180 LAKE SPAULDING ROAD Soda Springs CA 95728","10180","LAKE SPAULDING ROAD","","Soda Springs",NA,"CA","95728","6432035000","CA","Lake Dr",95728,"Soda Springs","CA",39.300863,-120.383803,0.572,"street","geocoded",220.01,220.14,220.14
"10185 CHISHOLM TRL BEAUMONT CA 92223","10185","CHISHOLM TRL","","BEAUMONT",NA,"","92223","","CA","Chisholm Trl",92223,"Beaumont","CA",33.974554,-116.9455,0.94,"range","geocoded",438.09,438.09,438.09
"10187 MESQUITE RD PHELAN CA 92344","10187","MESQUITE RD","","PHELAN",NA,"CA","92344","303919115","CA","Mesquite Rd",92344,"Hesperia","CA",34.397489,-117.429876,0.621,"street","geocoded",100.17,100.17,100.34
"1019 Galatea St Azusa CA 91702","1019","Galatea St","","Azusa",NA,"","91702","","CA","Galatea St",91702,"Azusa","CA",34.119754,-117.886677,0.933,"range","geocoded",4040,4040,4040
"1019 King St City of Santa Rosa CA 95404","1019","King St","","City of Santa Rosa",NA,"","95404","","CA","King St",95404,"Santa Rosa","CA",38.45064,-122.710769,0.784,"range","geocoded",1522.01,1522.01,1522.01
"1019 N PEACH AVE  CA 93727","1019","N PEACH AVE","","",NA,"","93727","","CA","N Peach Ave",93727,"Fresno","CA",36.755851,-119.718253,0.911,"range","geocoded",30.01,30.01,30.01
"10190 RIVERSIDE DR BEN LOMOND CA 95005","10190","RIVERSIDE DR","","BEN LOMOND",NA,"","95005","","CA","Riverside Dr",95005,"Ben Lomond","CA",37.096584,-122.095298,0.945,"range","geocoded",1203.01,1203.01,1203.01
"10198 N BAIRD AVE  CA 93730","10198","N BAIRD AVE","","",NA,"","93730","","CA","N Baird Ave",93730,"Fresno","CA",36.883442,-119.743496,0.911,"range","geocoded",55.04,55.04,55.04
"102 ANNED DR PLACENTIA CA ","102","ANNED DR","","PLACENTIA",NA,"CA","","339-272-12","CA",NA,NA,NA,NA,NA,NA,NA,NA,"imprecise_geocode",NA,NA,NA
"102 EDISON AVE CORTE MADERA CA 94925","102","EDISON AVE","","CORTE MADERA",NA,"","94925","","CA","Edison Ave",94925,"Corte Madera","CA",37.926159,-122.53373,0.953,"range","geocoded",1211,1211,1211
"102 ELM WOOD CT LOS GATOS CA 95032","102","ELM WOOD CT","","LOS GATOS",NA,"","95032","","CA","Elm Wood Ct",95032,"Los Gatos","CA",37.264714,-121.975959,0.944,"range","geocoded",5067.03,5067.03,5067.03
"102 Inverness Dr La Canada Flintridge CA 91011","102","Inverness Dr","","La Canada Flintridge",NA,"","91011","","CA","Inverness Dr",91011,"La Canada Flintridge","CA",34.181262,-118.178223,0.84,"range","geocoded",4607,4607,4607
"1020 ARCHER ST LOMPOC CA 93436","1020","ARCHER ST","","LOMPOC",NA,"","93436","089-460-018","CA","Archer St",93436,"Lompoc","CA",34.654996,-120.472239,0.939,"range","geocoded",28.02,28.02,28.02
"1020 BERMUDA DR REDLANDS CA 92373","1020","BERMUDA DR","","REDLANDS",NA,"CA","92373","17334205","CA","Bermuda Dr",92374,NA,NA,34.046871,-117.163674,0.805,"range","geocoded",84.03,84.03,84.03
"1020 Bush St City of Santa Rosa CA 95404","1020","Bush St","","City of Santa Rosa",NA,"","95404","","CA","Bush St",95404,"Santa Rosa","CA",38.435957,-122.702583,0.784,"range","geocoded",1519,1519,1519
"1020 E WASHINGTON AVE Escondido CA 92025","1020","E WASHINGTON AVE","92","Escondido",NA,"CA","92025","2300522630","CA","E Washington Ave",92025,"Escondido","CA",33.131222,-117.071138,0.936,"range","geocoded",202.02,202.02,202.02
"1020 IVY GLEN DR  CA ","1020","IVY GLEN DR","","",NA,"","","25470063","CA",NA,NA,NA,NA,NA,NA,NA,NA,"imprecise_geocode",NA,NA,NA
"1020 LANCER DR SAN JOSE CA 95129","1020","LANCER DR","","SAN JOSE",NA,"CA","95129","","CA","Lancer Dr",95129,"San Jose","CA",37.308865,-122.015918,0.946,"range","geocoded",5079.06,5079.06,5079.06
"1020 PALERMO DR SANTA BARBARA CA 93105","1020","PALERMO DR","","SANTA BARBARA",NA,"","93105","049-131-007","CA","Palermo Dr",93105,"Santa Barbara","CA",34.422705,-119.748289,0.955,"range","geocoded",13.01,13.06,13.06
"1020 SAN GABRIEL CIR  CA ","1020","SAN GABRIEL CIR","","",NA,"","","103120260","CA",NA,NA,NA,NA,NA,NA,NA,NA,"imprecise_geocode",NA,NA,NA
"10200 S Buford Ave Inglewood CA 90304","10200","S Buford Ave","","Inglewood",NA,"","90304","","CA","S Buford Ave",90304,"Inglewood","CA",33.943255,-118.363414,0.942,"range","geocoded",6015.01,6015.01,6015.01
"10207 Lev Ave Pacoima CA 91331","10207","Lev Ave","","Pacoima",NA,"","91331","","CA","Lev Ave",91331,"Pacoima","CA",34.255816,-118.439039,0.948,"range","geocoded",1191,1192.02,1192.02
"1021 5TH STREET DAVIS CA 95616","1021","5TH STREET","","DAVIS",NA,"","95616","070 342 16","CA","5th St",95616,"Davis","CA",38.548007,-121.737509,0.846,"range","geocoded",106.02,106.02,106.02
"1021 Crinella Dr City of Petaluma CA 94954","1021","Crinella Dr","","City of Petaluma",NA,"","94954","","CA","Crinella Dr",94954,"Petaluma","CA",38.243255,-122.606189,0.807,"range","geocoded",1506.02,1506.02,1506.02
"1021 JASPER DR BIG BEAR LAKE CA 92315","1021","JASPER DR","","BIG BEAR LAKE",NA,"CA","92315","232853203","CA","Jasper Dr",92314,NA,NA,34.242607,-116.863071,0.805,"range","geocoded",114,114.01,114.05
"1021 N KINGSWELL AVE BANNING CA 92220","1021","N KINGSWELL AVE","","BANNING",NA,"","92220","","CA","Kingswell Ave",92220,"Banning","CA",33.93392,-116.933207,0.893,"range","geocoded",441.03,441.03,441.03
"1021 QUINCY  CA ","1021","QUINCY","","",NA,"","","","CA",NA,NA,NA,NA,NA,NA,NA,NA,"imprecise_geocode",NA,NA,NA
"1021 S Masselin Ave Los Angeles CA 90019","1021","S Masselin Ave","","Los Angeles",NA,"","90019","","CA","S Masselin Ave",90019,"Los Angeles","CA",34.056776,-118.355047,0.944,"range","geocoded",2163,2163,2163.02
"10211 CAMINO RUIZ San Diego CA 92126","10211","CAMINO RUIZ","152","San Diego",NA,"CA","92126","3411102400","CA","Cam Ruiz",92126,"San Diego","CA",32.902665,-117.144509,0.944,"range","geocoded",83.6,83.6,83.6
"10211 GRANDVIEW DR La Mesa CA 91941","10211","GRANDVIEW DR","","La Mesa",NA,"CA","91941","4962330300","CA","Grandview Dr",91941,"La Mesa","CA",32.763918,-116.978225,0.937,"range","geocoded",137.01,137.01,137.01
"10214 S Inglewood Ave Inglewood CA 90304","10214","S Inglewood Ave","","Inglewood",NA,"","90304","","CA","S Inglewood Ave",90304,"Inglewood","CA",33.943442,-118.361245,0.938,"range","geocoded",6015.01,6015.01,6015.01
"10216 Melvin Ave Northridge CA 91324","10216","Melvin Ave","","Northridge",NA,"","91324","","CA","Melvin Ave",91324,"Northridge","CA",34.255647,-118.560616,0.949,"range","geocoded",1133.22,1133.22,1133.22
"1022 Indiana Ct Venice CA 90291","1022","Indiana Ct","","Venice",NA,"","90291","","CA","Indiana Ct",90291,"Venice","CA",34.003324,-118.460597,0.937,"range","geocoded",2731,2731,2731
"1022 Manhattan Ave Hermosa Beach CA 90254","1022","Manhattan Ave","Upper","Hermosa Beach",NA,"","90254","","CA","Manhattan Ave",90254,"Hermosa Beach","CA",33.861046,-118.398622,0.949,"range","geocoded",6211.01,6211.04,6211.04
"1022 ORDWAY ST ALBANY CA 94706","1022","ORDWAY ST","","ALBANY",NA,"","94706","65-2631-17","CA","Ordway St",94706,"Albany","CA",37.885911,-122.284866,0.939,"range","geocoded",4206,4206,4206
"1022 S Catalina St Los Angeles CA 90006","1022","S Catalina St","","Los Angeles",NA,"","90006","","CA","S Catalina St",90006,"Los Angeles","CA",34.052257,-118.294674,0.945,"range","geocoded",2133.2,2133.2,2133.2
"10221 GATEMONT CIR  CA 95624","10221","GATEMONT CIR","","",NA,"","95624","1.34068E+13","CA","Gatemont Cir",95624,"Franklin","CA",38.387087,-121.368933,0.919,"range","geocoded",93.1,93.1,93.1
"10222 BONSER AV GARDEN GROVE CA ","10222","BONSER AV","","GARDEN GROVE",NA,"CA","","089-372-03","CA",NA,NA,NA,NA,NA,NA,NA,NA,"imprecise_geocode",NA,NA,NA
"10229 Bartee Ave Pacoima CA 91331","10229","Bartee Ave","","Pacoima",NA,"","91331","","CA","Bartee Ave",91331,"Pacoima","CA",34.25634,-118.438149,0.94,"range","geocoded",1191,1192.02,1192.02
"1023 41ST AV OAKLAND CA 94601","1023","41ST AV","","OAKLAND",NA,"","94601","33-2162-10-1","CA","41st Ave",94601,"Oakland","CA",37.771933,-122.218492,0.861,"range","geocoded",4061,4061,4061
"1023 CLINTONIA AVE SAN JOSE CA 95125","1023","CLINTONIA AVE","","SAN JOSE",NA,"","95125","","CA","Clintonia Ave",95125,"San Jose","CA",37.314075,-121.899284,0.938,"range","geocoded",5018,5018,5018
"1023 Golf Course Dr City of Rohnert Park CA 94928","1023","Golf Course Dr","","City of Rohnert Park",NA,"","94928","","CA","Golf Course Dr",94928,"Rohnert Park","CA",38.363636,-122.691743,0.829,"range","geocoded",1513.07,1513.07,1513.07
"1023 N Gulf Ave Wilmington CA 90744","1023","N Gulf Ave","","Wilmington",NA,"","90744","","CA","N Gulf Ave",90744,"Wilmington","CA",33.78279,-118.273211,0.949,"range","geocoded",2945.1,2945.1,2945.1
"10231 Dixon Ave Inglewood CA 90303","10231","Dixon Ave","","Inglewood",NA,"","90303","","CA","Dixon Ave",90303,"Inglewood","CA",33.942779,-118.332162,0.949,"range","geocoded",6006.02,6006.02,6006.02
"10231 Tropico Ave Whittier CA 90603","10231","Tropico Ave","","Whittier",NA,"","90603","","CA","Tropico Ave",90603,"Whittier","CA",33.941987,-118.004542,0.941,"range","geocoded",5034.02,5034.02,5034.02
"1024 BELLFLOWER LN LOMPOC CA 93436","1024","BELLFLOWER LN","","LOMPOC",NA,"","93436","089-370-066","CA","Bellflower Ln",93436,"Lompoc","CA",34.660388,-120.469673,0.932,"range","geocoded",28.02,28.02,28.02
"1024 COLOMA WAY  CA 95661","1024","COLOMA WAY","","",NA,"","95661","","CA","Coloma Way",95661,"Roseville","CA",38.734343,-121.278674,0.912,"range","geocoded",207.02,207.13,207.13
"1024 LOMA AVE  CA ","1024","LOMA AVE","","",NA,"","","","CA",NA,NA,NA,NA,NA,NA,NA,NA,"imprecise_geocode",NA,NA,NA
"1024 MISSION BAY DRIVE Vacaville CA 95688","1024","MISSION BAY DRIVE","","Vacaville",NA,"CA","95688","133442090","CA","Mission Bay Dr",95688,"Vacaville","CA",38.397891,-121.969227,0.935,"range","geocoded",2532.02,2532.06,2532.06
"1024 N Valley St Burbank CA 91505","1024","N Valley St","","Burbank",NA,"","91505","","CA","N Valley St",91505,"Burbank","CA",34.165946,-118.354122,0.938,"range","geocoded",3112,3112,3112
"1024 S California St San Gabriel CA 91776","1024","S California St","","San Gabriel",NA,"","91776","","CA","S California St",91776,"San Gabriel","CA",34.08943,-118.093212,0.942,"range","geocoded",4814.02,4814.02,4814.04
"10245 RUE CHAMBERRY San Diego CA 92131","10245","RUE CHAMBERRY","","San Diego",NA,"CA","92131","3641133000","CA","Rue Chamberry",92131,"San Diego","CA",32.901943,-117.067233,0.941,"range","geocoded",95.04,95.04,95.04
"10249 JENNIFER AVE HESPERIA CA 92345","10249","JENNIFER AVE","","HESPERIA",NA,"CA","92345","40530445","CA","Jennifer Ave",92345,"Hesperia","CA",34.436544,-117.352683,0.94,"range","geocoded",100.16,100.16,100.16
"10249 La Canada Wy Sunland CA 91040","10249","La Canada Wy","","Sunland",NA,"","91040","","CA","la Canada Way",91040,"Sunland","CA",34.259828,-118.3526,0.914,"range","geocoded",1033,1033,1033
"1025 1/2 W 62nd St Los Angeles CA 90044","1025 1/2","W 62nd St","","Los Angeles",NA,"","90044","","CA","W 62nd St",90044,"Los Angeles","CA",33.983322,-118.298042,0.706,"range","geocoded",2372,2372.01,2372.01
"1025 AWANI DR  CA ","1025","AWANI DR","","",NA,"","","4137035","CA",NA,NA,NA,NA,NA,NA,NA,NA,"imprecise_geocode",NA,NA,NA
"1025 BARNETT WAY MADERA CA 93637","1025","BARNETT WAY","","MADERA",NA,"","93637","","CA","Barnett Way",93637,"Madera","CA",36.942883,-120.047976,0.935,"range","geocoded",5.02,5.02,5.1
"1025 Boranda Ave Mountain View CA ","1025","Boranda Ave","UNIT 1","Mountain View",NA,"","","","CA",NA,NA,NA,NA,NA,NA,NA,NA,"imprecise_geocode",NA,NA,NA
"1025 CAROLINA ST  CA 94107","1025","CAROLINA ST","","",NA,"","94107","","CA","Carolina St",94107,"San Francisco","CA",37.755662,-122.399633,0.925,"range","geocoded",227.03,614,614.01
"10250 COWELL CT San Diego CA 92124","10250","COWELL CT","","San Diego",NA,"CA","92124","","CA","Cowell Ct",92124,"San Diego","CA",32.815173,-117.107367,0.949,"range","geocoded",95.08,95.1,95.1
"1026 Coronado Ave Long Beach CA 90804","1026","Coronado Ave","","Long Beach",NA,"","90804","","CA","Coronado Ave",90804,"Long Beach","CA",33.779447,-118.153419,0.945,"range","geocoded",5769.02,5769.03,5769.03
"1026 N GAMBLE ST Escondido CA 92026","1026","N GAMBLE ST","","Escondido",NA,"CA","92026","2290622200","CA","Gamble St",92026,"Escondido","CA",33.135899,-117.081929,0.891,"range","geocoded",201.08,201.08,201.08
"1026 SUNDEW WAY SAN JACINTO CA 92582","1026","SUNDEW WAY","","SAN JACINTO",NA,"","92582","","CA","Sundew Way",92582,"San Jacinto","CA",33.777053,-117.000305,0.951,"range","geocoded",435.06,435.06,435.06
"10261 SNOE WAY CHICO CA 95938","10261","SNOE WAY","","CHICO",NA,"","95938","","CA","Snoe Way",95938,"Durham","CA",39.680458,-121.79084,0.784,"range","geocoded",15,15,15
"10266 Angell St Downey CA 90242","10266","Angell St","","Downey",NA,"","90242","","CA","Angell St",90242,"Downey","CA",33.91266,-118.113825,0.939,"range","geocoded",5518,5518,5518.02
"1027 Castro St Martinez CA 94553","1027","Castro St","","Martinez",NA,"CA","94553","","CA","Castro St",94553,"Martinez","CA",38.015057,-122.135664,0.946,"range","geocoded",3160,3160,3160
"1027 Pch Harbor City CA 90710","1027","Pch","","Harbor City",NA,"","90710","","CA",NA,90710,"Harbor City","CA",NA,NA,0.622,"zip","imprecise_geocode",NA,NA,NA
"10270 EAGLE ROCK AVE San Diego CA 92126","10270","EAGLE ROCK AVE","","San Diego",NA,"CA","92126","3410930900","CA","Eagle Rock Ave",92126,"San Diego","CA",32.904958,-117.141216,0.939,"range","geocoded",83.6,83.6,83.6
"1028 Hook Ave Pleasant Hill CA 94523","1028","Hook Ave","","Pleasant Hill",NA,"CA","94523","","CA","Hook Ave",94523,"Pleasant Hill","CA",37.934861,-122.063376,0.96,"range","geocoded",3250,3250,3250
"1028 TRUXTUN AVE BAKERSFIELD CA 93301","1028","TRUXTUN AVE","","BAKERSFIELD",NA,"CA","93301","118676","CA","Truxtun Ave",93301,"Bakersfield","CA",35.373391,-119.0132,0.949,"range","geocoded",16,16,16
"10282 KEOKI ST San Diego CA 92126","10282","KEOKI ST","","San Diego",NA,"CA","92126","3414101400","CA","Keoki St",92126,"San Diego","CA",32.905026,-117.168543,0.951,"range","geocoded",83.5,83.5,83.5
"10284 MINER PL CUPERTINO CA 95014","10284","MINER PL","","CUPERTINO",NA,"","95014","","CA","Miner Pl",95014,"Cupertino","CA",37.326802,-122.030416,0.951,"range","geocoded",5081.01,5081.01,5081.01
"1029 E SUSAN PL SANTA MARIA CA 93454","1029","E SUSAN PL","","SANTA MARIA",NA,"","93454","128-166-039","CA","E Susan Pl",93455,NA,NA,34.912289,-120.420028,0.805,"range","geocoded",20.07,20.07,20.14
"1029 Evans Ct Hayward CA 94544","1029","Evans Ct","","Hayward",NA,"","94544","7658","CA","Evans Ct",94544,"Hayward","CA",37.641432,-122.082536,0.945,"range","geocoded",4375,4375,4375
"1029 FOURTH ST NOVATO CA 94945","1029","FOURTH ST","","NOVATO",NA,"","94945","","CA","4th St",94945,"Novato","CA",38.109049,-122.574659,0.841,"range","geocoded",1022.01,1022.03,1022.03
"10292 KENNY LN SAN JOSE CA 95127","10292","KENNY LN","","SAN JOSE",NA,"","95127","","CA","Kenny Ln",95127,"San Jose","CA",37.374875,-121.802741,0.948,"range","geocoded",5042.02,5042.02,5042.02
"10297 W Pico Blvd Los Angeles CA 90064","10297","W Pico Blvd","","Los Angeles",NA,"","90064","","CA","W Pico Blvd",90064,"Los Angeles","CA",34.048346,-118.413572,0.949,"range","geocoded",2679,2679.02,2679.02
"103 REEVES WAY  CA 95630","103","REEVES WAY","","",NA,"","95630","7.207E+12","CA","Reeves Way",95630,"Folsom","CA",38.665878,-121.125004,0.912,"range","geocoded",85.02,85.1,85.1
"103 Ripley Ct City of Santa Rosa CA 95401","103","Ripley Ct","","City of Santa Rosa",NA,"","95401","","CA","Ripley Ct",95401,"Santa Rosa","CA",38.442883,-122.724548,0.8,"range","geocoded",1530.02,1530.02,1530.02
"103 Schooner Ct Richmond CA 94804","103","Schooner Ct","","Richmond",NA,"CA","94804","","CA","Schooner Ct",94804,"Richmond","CA",37.916216,-122.351191,0.941,"range","geocoded",3800,3800,3800.01
"1030 Magnolia Ave Long Beach CA 90813","1030","Magnolia Ave","","Long Beach",NA,"","90813","","CA","Magnolia Ave",90813,"Long Beach","CA",33.779337,-118.197943,0.945,"range","geocoded",5758.02,5758.02,5758.02
"1030 S LILLIAN DR BARSTOW CA 92311","1030","S LILLIAN DR","","BARSTOW",NA,"CA","92311","18330122","CA","Lillian Dr",92311,"Barstow","CA",34.889499,-117.014774,0.888,"range","geocoded",95,95,95.02
"1030 S SUMMER BREEZE LN ANAHEIM CA 92808","1030","S SUMMER BREEZE LN","","ANAHEIM",NA,"","92808","","CA","S Summer Breeze Ln",92808,"Anaheim","CA",33.849031,-117.731504,0.929,"range","geocoded",219.23,219.23,219.23
"10303 MOLINO RD Santee CA 92071","10303","MOLINO RD","","Santee",NA,"CA","92071","3814811100","CA","Molino Rd",92071,"Santee","CA",32.864247,-116.980047,0.939,"range","geocoded",166.09,166.09,166.09
"10306 LEILA LN Santee CA 92071","10306","LEILA LN","","Santee",NA,"CA","92071","3815920200","CA","Leila Ln",92071,"Santee","CA",32.849679,-116.973001,0.941,"range","geocoded",166.15,166.15,166.15
"10309 PAUL AVE BAKERSFIELD CA 93312","10309","PAUL AVE","","BAKERSFIELD",NA,"CA","93312","120825","CA","Paul Ave",93312,"Bakersfield","CA",35.394795,-119.11647,0.956,"range","geocoded",38.07,38.07,38.07
"1031 CALLE ANACAPA Encinitas CA 92024","1031","CALLE ANACAPA","","Encinitas",NA,"CA","92024","2641530600","CA","Cll Anacapa",92024,"Encinitas","CA",33.056669,-117.228557,0.941,"range","geocoded",171.05,171.1,171.11
"1031 CALLE DE PRADO ALAMEDA CA 94502","1031","CALLE DE PRADO","","ALAMEDA",NA,"","94502","74-1063-31","CA","Parodi Ct",94502,"Alameda","CA",NA,NA,0.495,"street","imprecise_geocode",NA,NA,NA
"1031 W 12TH AVE CHICO CA 95926","1031","W 12TH AVE","","CHICO",NA,"","95926","","CA","W 12th Ave",95926,"Chico","CA",39.744016,-121.869602,0.898,"range","geocoded",6.01,6.01,6.01
"10310 MEURET RD  CA 95693","10310","MEURET RD","","",NA,"","95693","1.36034E+13","CA","Meuret Rd",95693,"Wilton","CA",38.382846,-121.253757,0.913,"range","geocoded",94.03,94.03,94.03
"10311 Condon Ave Inglewood CA 90304","10311","Condon Ave","","Inglewood",NA,"","90304","","CA","Condon Ave",90304,"Inglewood","CA",33.942581,-118.359191,0.946,"range","geocoded",6015.01,6015.01,6015.01
"10318 Glenbarr Ave Los Angeles CA 90064","10318","Glenbarr Ave","","Los Angeles",NA,"","90064","","CA","Glenbarr Ave",90064,"Los Angeles","CA",34.039478,-118.407777,0.947,"range","geocoded",2693,2693,2693
"1032 BANCROFT WAY BERKELEY CA 94710","1032","BANCROFT WAY","","BERKELEY",NA,"","94710","056 193300300","CA","Bancroft Way",94710,"Berkeley","CA",37.864342,-122.291815,0.94,"range","geocoded",4232,4232,4232
"1032 IMPRESSIONIST LOOP  CA 95747","1032","IMPRESSIONIST LOOP","","",NA,"","95747","","CA","Impressionist Loop",95747,"Roseville","CA",38.798687,-121.330101,0.802,"range","geocoded",210.05,231,231
"1032 RAMONA AV  CA ","1032","RAMONA AV","","",NA,"","","26454053","CA",NA,NA,NA,NA,NA,NA,NA,NA,"imprecise_geocode",NA,NA,NA
"10322 GREENWICH  CA ","10322","GREENWICH","","",NA,"","","","CA",NA,NA,NA,NA,NA,NA,NA,NA,"imprecise_geocode",NA,NA,NA
"10326 CREST BROOK DR MORENO VALLEY CA 92557","10326","CREST BROOK DR","","MORENO VALLEY",NA,"","92557","","CA","Crest Brook Dr",92557,"Moreno Valley","CA",33.970069,-117.263101,0.927,"range","geocoded",422.14,422.14,422.14
"10326 NEWTOWN ROAD Nevada City CA 95959","10326","NEWTOWN ROAD","","Nevada City",NA,"CA","95959","419003000","CA","Newtown Rd",95959,"Nevada City","CA",39.266144,-121.062049,0.947,"range","geocoded",8.02,8.02,8.02
"10328 SUNNYSIDE ST OAKLAND CA 94603","10328","SUNNYSIDE ST","","OAKLAND",NA,"","94603","47-5497-1-1","CA","Sunnyside St",94603,"Oakland","CA",37.742663,-122.159819,0.937,"range","geocoded",4104,4104,4104
"1033 COUNTRY CLUB LN CORONA CA 92880","1033","COUNTRY CLUB LN","","CORONA",NA,"","92880","","CA","Country Club Ln",92880,"Corona","CA",33.903894,-117.586548,0.929,"range","geocoded",408.07,408.07,408.07
"1033 MARY ANN AV  CA ","1033","MARY ANN AV","","",NA,"","","","CA",NA,NA,NA,NA,NA,NA,NA,NA,"imprecise_geocode",NA,NA,NA
"1033 OLIVER ST Fillmore CA 93015","1033","OLIVER ST","","Fillmore",NA,"","93015","","CA","Oliver St",93015,"North Fillmore","CA",34.397732,-118.925917,0.957,"range","geocoded",3.01,3.03,3.03
"10333 LA VINE ST RANCHO CUCAMONGA CA 91701","10333","LA VINE ST","","RANCHO CUCAMONGA",NA,"CA","91701","107630138","CA","la Vine St",91701,"Alta Loma","CA",34.125977,-117.57971,0.74,"range","geocoded",20.05,20.25,20.25
"1034 BURLINGTON DR SANTA MARIA CA 93455","1034","BURLINGTON DR","","SANTA MARIA",NA,"","93455","105-230-004","CA","Burlington Dr",93455,"Santa Maria","CA",34.871718,-120.449759,0.945,"range","geocoded",20.13,20.13,20.13
"1034 W CHESTNUT AVE LOMPOC CA 93436","1034","W CHESTNUT AVE","","LOMPOC",NA,"","93436","091-340-011","CA","W Chestnut Ave",93436,"Lompoc","CA",34.642263,-120.469229,0.93,"range","geocoded",27.02,27.02,27.09
"1034 W Kensington Rd Los Angeles CA 90026","1034","W Kensington Rd","","Los Angeles",NA,"","90026","","CA","W Kensington Rd",90026,"Los Angeles","CA",34.072995,-118.257804,0.942,"range","geocoded",1975,1975,1975
"10343 BROOKMEAD DR MORENO VALLEY CA 92557","10343","BROOKMEAD DR","","MORENO VALLEY",NA,"","92557","","CA","Brookmead Dr",92557,"Moreno Valley","CA",33.970608,-117.269319,0.951,"range","geocoded",422.14,422.14,422.14
"10346 N Sepulveda Blvd San Fernando CA 91345","10346","N Sepulveda Blvd","","San Fernando",NA,"","91345","","CA","N Sepulveda Blvd",91345,"Mission Hills","CA",NA,NA,0.468,"street","imprecise_geocode",NA,NA,NA
"10349 GLENCOE DR CUPERTINO CA 95014","10349","GLENCOE DR","","CUPERTINO",NA,"CA","95014","","CA","Glencoe Dr",95014,"Cupertino","CA",37.327899,-122.0403,0.946,"range","geocoded",5078.06,5078.06,5078.06
"1035 BEVERLY DR Vista CA 92084","1035","BEVERLY DR","","Vista",NA,"CA","92084","1741612100","CA","Beverly Dr",92084,"Vista","CA",33.21289,-117.212065,0.933,"range","geocoded",192.07,192.07,192.1
"1035 HAZEL AVE CAMPBELL CA 95008","1035","HAZEL AVE","","CAMPBELL",NA,"","95008","","CA","Hazel Ave",95008,"Campbell","CA",37.275666,-121.966876,0.946,"range","geocoded",5067.02,5067.02,5067.02
"1035 TREASURE LN  CA 95678","1035","TREASURE LN","","",NA,"","95678","","CA","Treasure Ln",95678,"Roseville","CA",38.754621,-121.30105,0.929,"range","geocoded",210.08,210.45,210.45
"1035 W LAKE BLVD  CA 96145","1035","W LAKE BLVD","","",NA,"","96145","","CA","W Lake Blvd",96145,"Tahoe City","CA",39.151039,-120.145615,0.798,"range","geocoded",201.03,222,222
"1035 Woodside Dr  CA ","1035","Woodside Dr","","",NA,"","","","CA",NA,NA,NA,NA,NA,NA,NA,NA,"imprecise_geocode",NA,NA,NA
"10351 S PRADO WOODS DR VILLA PARK CA ","10351","S PRADO WOODS DR","","VILLA PARK",NA,"CA","","378-013-09","CA",NA,NA,NA,NA,NA,NA,NA,NA,"imprecise_geocode",NA,NA,NA
"10351 Tupelo Ln Los Angeles CA 90077","10351","Tupelo Ln","","Los Angeles",NA,"","90077","","CA","Tupelo Ln",90077,"Los Angeles","CA",34.107517,-118.445515,0.954,"range","geocoded",2612,2612,2612
"10353 ADERMAN AVE San Diego CA 92126","10353","ADERMAN AVE","","San Diego",NA,"CA","92126","3113744300","CA","Aderman Ave",92126,"San Diego","CA",32.90591,-117.160338,0.944,"range","geocoded",83.5,83.5,83.5
"10355 Rush St South El Monte CA 91733","10355","Rush St","","South El Monte",NA,"","91733","","CA","Rush St",91733,"South El Monte","CA",34.051918,-118.045244,0.965,"range","geocoded",4335.02,4335.03,4341
"10363 Lanark St Sun Valley CA 91352","10363","Lanark St","","Sun Valley",NA,"","91352","","CA","Lanark St",91352,"Sun Valley","CA",34.217357,-118.356909,0.951,"range","geocoded",1222,1222,1222
"1037 ANEMONE WAY SAN JOSE CA 95133","1037","ANEMONE WAY","","SAN JOSE",NA,"","95133","","CA","Anomone Way",95133,"San Jose","CA",37.379467,-121.865108,0.72,"street","geocoded",5043.19,5043.19,5043.19
"1037 CARMELITA AVE  CA 93619","1037","CARMELITA AVE","","",NA,"","93619","","CA","Carmelita Ave",93619,"Fresno","CA",36.793284,-119.64539,0.6,"street","geocoded",59.03,59.11,59.11
"1037 E 16TH ST National City CA 91950","1037","E 16TH ST","","National City",NA,"CA","91950","5610520600","CA","E 16th St",91950,"National City","CA",32.671964,-117.09367,0.917,"range","geocoded",117,117,117
"1037 FAWNGLEN COURT Vacaville CA 95687","1037","FAWNGLEN COURT","","Vacaville",NA,"CA","95687","136621070","CA","Fawnglen Ct",95687,"Vacaville","CA",38.317795,-121.952895,0.841,"street","geocoded",2529.07,2529.15,2529.15
"1037 ORTEGA AVE Fillmore CA 93015","1037","ORTEGA AVE","","Fillmore",NA,"","93015","","CA","Ortega St",93015,"North Fillmore","CA",34.397085,-118.926047,0.871,"range","geocoded",3.01,3.03,3.03
"10371 KEENAN WAY Grass Valley CA 95949","10371","KEENAN WAY","","Grass Valley",NA,"CA","95949","2004027000","CA","Keenan Way",95949,"Grass Valley","CA",39.141093,-121.065737,0.953,"range","geocoded",1.02,1.02,1.02
"10376 OLD DOBBINS RD Dobbins CA ","10376","OLD DOBBINS RD","","Dobbins",NA,"","","","CA",NA,NA,NA,NA,NA,NA,NA,NA,"imprecise_geocode",NA,NA,NA
"1038 ELLIOT ST WOODLAND CA 95695","1038","ELLIOT ST","","WOODLAND",NA,"","95695","005 164 08","CA","Elliot St",95695,"Woodland","CA",38.681011,-121.766961,0.946,"range","geocoded",108,108,108
"1038 FOREST KNOLL DR SAN JOSE CA 95129","1038","FOREST KNOLL DR","","SAN JOSE",NA,"","95129","","CA","Forest Knoll Dr",95129,"San Jose","CA",37.307616,-122.012597,0.935,"range","geocoded",5079.03,5079.03,5079.03
"1038 HOUSTON CIR  CA 95630","1038","HOUSTON CIR","","",NA,"","95630","7.1128E+12","CA","Houston Cir",95630,"Folsom Junction","CA",38.675737,-121.123789,0.935,"range","geocoded",85.02,85.09,85.09
"1038 REDMOND AVE SAN JOSE CA 95120","1038","REDMOND AVE","","SAN JOSE",NA,"","95120","","CA","Redmond Ave",95120,"San Jose","CA",37.228016,-121.863252,0.941,"range","geocoded",5119.07,5119.07,5119.07
"1038 S BOYD AVE  CA 93702","1038","S BOYD AVE","","",NA,"","93702","","CA","S Boyd Ave",93702,"Sunnyside","CA",36.732808,-119.752398,0.932,"range","geocoded",13.01,13.01,13.01
"10385 MERRIMAN RD CUPERTINO CA 95014","10385","MERRIMAN RD","","CUPERTINO",NA,"CA","95014","","CA","Merriman Rd",95014,"Cupertino","CA",37.317363,-122.070259,0.944,"range","geocoded",5077.03,5077.03,5077.05
"10386 Devillo Dr Whittier CA 90604","10386","Devillo Dr","","Whittier",NA,"","90604","","CA","Devillo Dr",90604,"Whittier","CA",33.937162,-118.02749,0.944,"range","geocoded",5032.01,5032.01,5032.01
"10391 S WHITE ROCK RD  CA 95670","10391","S WHITE ROCK RD","","",NA,"","95670","7.7034E+12","CA","S White Rock Rd",95670,"Gold River","CA",38.581367,-121.298503,0.922,"range","geocoded",90.07,90.07,90.07
"10394 BALDY CT CORONA CA 92883","10394","BALDY CT","","CORONA",NA,"","92883","","CA","Baldy Ct",92883,"Corona","CA",33.765476,-117.477908,0.941,"range","geocoded",419.08,419.1,419.1
"104 ADDINGTON CT  CA 95648","104","ADDINGTON CT","","",NA,"","95648","","CA","Addington Ct",95648,"Lincoln","CA",38.880658,-121.30918,0.927,"range","geocoded",213.01,233,233
"104 GOLD MINE DR  CA 94131","104","GOLD MINE DR","","",NA,"","94131","","CA","Gold Mine Dr",94131,"San Francisco","CA",37.742995,-122.438049,0.91,"range","geocoded",217,217,217
"104 HOXSIE CT   # B  CA 95630","104","HOXSIE CT   # B","","",NA,"","95630","7.10243E+12","CA","Hoxsie Ct",95630,"Folsom Junction","CA",38.672709,-121.16068,0.882,"range","geocoded",84.02,84.02,84.02
"104 PENARANDA DR  CA 95630","104","PENARANDA DR","","",NA,"","95630","7.10166E+12","CA","Penaranda Dr",95630,"Folsom Junction","CA",38.673315,-121.153615,0.909,"range","geocoded",84.02,84.02,84.02
"104 W RAMONA ST Ventura CA 93001","104","W RAMONA ST","","Ventura",NA,"","93001","","CA","W Ramona St",93001,"San Buenaventura","CA",34.289892,-119.299633,0.944,"range","geocoded",23,23,23.01
"1040 10TH AVE San Diego CA 92101","1040","10TH AVE","","San Diego",NA,"CA","92101","5341960500","CA","10th Ave",92101,"San Diego","CA",32.716192,-117.155684,0.897,"range","geocoded",52,52,52.02
"1040 E AVENIDA DE LAS FLORES Thousand Oaks CA 91360","1040","E AVENIDA DE LAS FLORES","","Thousand Oaks",NA,"","91360","","CA","E Ave de Las Flores",91360,"Thousand Oaks","CA",34.207712,-118.860821,0.937,"range","geocoded",68,68,68
"1040 JACKSON ST ALBANY CA 94706","1040","JACKSON ST","405","ALBANY",NA,"","94706","66-2692-5","CA","Jackson St",94706,"Albany","CA",37.885632,-122.300285,0.937,"range","geocoded",4204,4204,4204.01
"1040 KIMMEL STREET Salinas CA 93905","1040","KIMMEL STREET","","Salinas",NA,"","93905","","CA","Kimmel St",93905,"Salinas","CA",36.683658,-121.616049,0.935,"range","geocoded",6,6,6
"1040 Mohr Ln Concord CA 94518","1040","Mohr Ln","","Concord",NA,"CA","94518","","CA","Mohr Ln",94518,"Concord","CA",37.945738,-122.045286,0.948,"range","geocoded",3381,3381.01,3381.01
"1040 RUSSELL AV SANTA ANA CA ","1040","RUSSELL AV","","SANTA ANA",NA,"CA","","013-071-01","CA",NA,NA,NA,NA,NA,NA,NA,NA,"imprecise_geocode",NA,NA,NA
"1040 RYMAR CT SAN JOSE CA 95133","1040","RYMAR CT","","SAN JOSE",NA,"","95133","","CA","Rymar Ct",95133,"San Jose","CA",37.384895,-121.859295,0.948,"range","geocoded",5043.07,5043.07,5043.07
"1040 SOLANO AV ALBANY CA 94706","1040","SOLANO AV","","ALBANY",NA,"","94706","","CA","Solano Ave",94706,"Albany","CA",37.890031,-122.299712,0.91,"range","geocoded",4203,4203,4203.02
"1040 STEINER ST  CA 94115","1040","STEINER ST","13","",NA,"","94115","","CA","Steiner St",94115,"San Francisco","CA",37.778814,-122.433394,0.917,"range","geocoded",161,161,161.01
"1040 TOPAZ CT  CA ","1040","TOPAZ CT","","",NA,"","","21733016","CA",NA,NA,NA,NA,NA,NA,NA,NA,"imprecise_geocode",NA,NA,NA
"10407 RICHARD RD  CA 92127","10407","RICHARD RD","","",NA,"CA","92127","6786625600","CA","Richard Rd",92127,"San Diego","CA",33.032474,-117.112923,0.902,"range","geocoded",170.3,170.3,170.64
"10408 02ND ST Santee CA 92071","10408","02ND ST","","Santee",NA,"CA","92071","3816614700","CA","2nd St",92071,"Santee","CA",32.858836,-116.970973,0.87,"range","geocoded",166.07,166.07,166.07
"10410 Tujunga Canyon Blvd Tujunga CA 91042","10410","Tujunga Canyon Blvd","","Tujunga",NA,"","91042","","CA","Tujunga Canyon Blvd",91042,"Tujunga","CA",34.258094,-118.29176,0.928,"range","geocoded",1011.1,1011.1,1011.1
"10413 Anzac Ave Los Angeles CA 90002","10413","Anzac Ave","","Los Angeles",NA,"","90002","","CA","Anzac Ave",90002,"Los Angeles","CA",33.941718,-118.238017,0.954,"range","geocoded",2430,2430,2430.01
"10416 Key West Ave Porter Ranch CA 91326","10416","Key West Ave","","Porter Ranch",NA,"","91326","","CA","Key West Ave",91326,"Porter Ranch","CA",34.259634,-118.553564,0.876,"range","geocoded",1112.04,1112.04,1112.04
"10417 GEORGETOWN DR  CA 95670","10417","GEORGETOWN DR","","",NA,"","95670","5.60041E+12","CA","Georgetown Dr",95670,"Gold River","CA",38.604896,-121.301802,0.925,"range","geocoded",89.13,89.13,89.13
"10417 TULA LN CUPERTINO CA 95014","10417","TULA LN","","CUPERTINO",NA,"","95014","","CA","Tula Ln",95014,"Cupertino","CA",37.317061,-122.039721,0.954,"range","geocoded",5077.01,5077.01,5077.01
"1042 Hooper Dr West Covina CA 91791","1042","Hooper Dr","","West Covina",NA,"","91791","","CA","Hooper Dr",91791,"West Covina","CA",34.050379,-117.872557,0.954,"range","geocoded",4063,4063,4063
"1042 N SHOOTING STAR DR BEAUMONT CA 92223","1042","N SHOOTING STAR DR","","BEAUMONT",NA,"","92223","","CA","Shooting Star Dr",92223,"Beaumont","CA",33.938175,-116.956978,0.899,"range","geocoded",438.05,438.18,438.18
"1042 S Robertson Blvd Los Angeles CA 90035","1042","S Robertson Blvd","","Los Angeles",NA,"","90035","","CA","S Robertson Blvd",90035,"Los Angeles","CA",34.058392,-118.383558,0.941,"range","geocoded",2164,2164.01,2164.01
"10423 CAMDEN DR CYPRESS CA ","10423","CAMDEN DR","","CYPRESS",NA,"CA","","241-063-02","CA",NA,NA,NA,NA,NA,NA,NA,NA,"imprecise_geocode",NA,NA,NA
"1043 W VERNAL ST  CA ","1043","W VERNAL ST","","",NA,"","","21911020","CA",NA,NA,NA,NA,NA,NA,NA,NA,"imprecise_geocode",NA,NA,NA
"10430 STANFIELD CIR San Diego CA 92126","10430","STANFIELD CIR","","San Diego",NA,"CA","92126","3181833000","CA","Stanfield Cir",92126,"San Diego","CA",32.908066,-117.133036,0.941,"range","geocoded",83.58,83.58,83.58
"10435 OLYMPIC BOULEVARD Truckee CA 96161","10435","OLYMPIC BOULEVARD","","Truckee",NA,"CA","96161","1904048000","CA","Olympic Blvd",96161,"Truckee","CA",39.33674,-120.15844,0.93,"range","geocoded",12.01,12.05,12.05
"1044 FAIRVIEW DR GRIDLEY CA 95948","1044","FAIRVIEW DR","","GRIDLEY",NA,"","95948","","CA","Fairview Dr",95948,"East Gridley","CA",39.369433,-121.685529,0.949,"range","geocoded",34,34,34
"1044 San Miguel Rd Concord CA 94518","1044","San Miguel Rd","","Concord",NA,"CA","94518","","CA","San Miguel Rd",94518,"Concord","CA",37.956911,-122.026299,0.935,"range","geocoded",3372,3372,3372.02
"10447 OLEANDER AVE FONTANA CA 92335","10447","OLEANDER AVE","","FONTANA",NA,"CA","92335","25116414","CA","Oleander Ave",92335,"South Fontana","CA",34.067489,-117.448706,0.748,"street","geocoded",33,33.01,33.01
"10449 MILLS TOWER DR  CA 95670","10449","MILLS TOWER DR","","",NA,"","95670","7.20131E+12","CA","Mills Tower Dr",95670,"Gold River","CA",38.589202,-121.301017,0.93,"range","geocoded",90.08,90.08,90.08
"1045 DORA AVE  CA 95062","1045","DORA AVE","","",NA,"","95062","","CA","Dora Ave",95062,"Twin Lakes","CA",36.979109,-121.988165,0.932,"range","geocoded",1214.01,1214.01,1214.01
"1045 E Larkwood St West Covina CA 91790","1045","E Larkwood St","","West Covina",NA,"","91790","","CA","E Larkwood St",91790,"West Covina","CA",34.064109,-117.923889,0.945,"range","geocoded",4065,4065,4065
"1045 S Orange Grove Blvd Pasadena CA 91105","1045","S Orange Grove Blvd","10","Pasadena",NA,"","91105","","CA","S Orange Grove Blvd",91105,"Pasadena","CA",34.127952,-118.158363,0.93,"range","geocoded",4639,4639,4639
"1045 SHERMAN DRIVE Salinas CA 93907","1045","SHERMAN DRIVE","","Salinas",NA,"","93907","","CA","Sherman Dr",93907,"Salinas","CA",36.694014,-121.665229,0.935,"range","geocoded",18,18.02,18.02
"1045 Western Ave Glendale CA 91201","1045","Western Ave","A","Glendale",NA,"","91201","","CA","Western Ave",91201,"Glendale","CA",34.169776,-118.291277,0.941,"range","geocoded",3016.01,3016.01,3016.01
"10453 48TH ST JURUPA VALLEY CA 91752","10453","48TH ST","","JURUPA VALLEY",NA,"","91752","","CA","Jurupa Rd",91752,"Mira Loma","CA",33.992784,-117.512056,0.742,"range","geocoded",406.05,406.05,406.05
"10453 NEVADA ST  CA ","10453","NEVADA ST","","",NA,"","","","CA",NA,NA,NA,NA,NA,NA,NA,NA,"imprecise_geocode",NA,NA,NA
"10455 Corbin Ave Chatsworth CA 91311","10455","Corbin Ave","","Chatsworth",NA,"","91311","","CA","Corbin Ave",91311,"Chatsworth","CA",34.258918,-118.56311,0.949,"range","geocoded",1131,1131.02,1131.02
"10457 JASPER CT ADELANTO CA 92301","10457","JASPER CT","","ADELANTO",NA,"CA","92301","45973227","CA","Jasper Ct",92301,"Adelanto","CA",34.578872,-117.437185,0.946,"range","geocoded",91.04,91.17,91.33
"10465 Denver Ave Los Angeles CA 90044","10465","Denver Ave","","Los Angeles",NA,"","90044","","CA","Denver Ave",90044,"Los Angeles","CA",33.941019,-118.284858,0.951,"range","geocoded",2412,2412.01,2412.01
"1048 CORONADO AVE  CA ","1048","CORONADO AVE","","",NA,"","","","CA",NA,NA,NA,NA,NA,NA,NA,NA,"imprecise_geocode",NA,NA,NA
"1048 N Ahern Dr La Puente CA 91746","1048","N Ahern Dr","","La Puente",NA,"","91746","","CA","N Ahern Dr",91746,"La Puente","CA",34.061596,-117.9804,0.946,"range","geocoded",4070.01,4070.01,4070.01
"1048 N HANEY AVE  CA 93654","1048","N HANEY AVE","","",NA,"","93654","","CA","N Haney Ave",93654,"Reedley","CA",36.605728,-119.434683,0.92,"range","geocoded",66.01,66.04,66.06
"1048 W 85th St Los Angeles CA 90044","1048","W 85th St","","Los Angeles",NA,"","90044","","CA","W 85th St",90044,"Los Angeles","CA",33.96087,-118.292736,0.914,"range","geocoded",2382,2382,2382
"10486 CARRINGTON LANE Grass Valley CA 95949","10486","CARRINGTON LANE","","Grass Valley",NA,"CA","95949","2228133000","CA","Carrington Ln",95949,"Grass Valley","CA",39.176154,-121.063444,0.944,"range","geocoded",3,3,3
"10489 EL COMAL DR San Diego CA 92124","10489","EL COMAL DR","","San Diego",NA,"CA","92124","3722120300","CA","el Comal Dr",92124,"San Diego","CA",32.837774,-117.101172,0.944,"range","geocoded",95.02,95.02,95.02
"1049 ISLAY ST SAN LUIS OBISPO CA 93401","1049","ISLAY ST","","SAN LUIS OBISPO",NA,"","93401","","CA","Islay St",93401,"San Luis Obispo","CA",35.277627,-120.656734,0.963,"range","geocoded",111.01,111.01,111.01
"1049 S Flower St Los Angeles CA 90015","1049","S Flower St","","Los Angeles",NA,"","90015","","CA","S Flower St",90015,"Los Angeles","CA",34.043723,-118.263382,0.949,"range","geocoded",2079,2079,2079.01
"1049 TIMBER CREST DR SAN JOSE CA 95120","1049","TIMBER CREST DR","","SAN JOSE",NA,"","95120","","CA","Timbercrest Dr",95120,"San Jose","CA",37.222783,-121.859333,0.893,"range","geocoded",5119.07,5119.07,5119.07
"1049 W 48th St Los Angeles CA 90037","1049","W 48th St","","Los Angeles",NA,"","90037","","CA","W 48th St",90037,"Los Angeles","CA",33.999678,-118.292422,0.914,"range","geocoded",2322,2322,2322
"10494 WHITE BIRCH DR San Diego CA 92131","10494","WHITE BIRCH DR","","San Diego",NA,"CA","92131","3192713400","CA","White Birch Dr",92131,"San Diego","CA",32.912993,-117.08452,0.939,"range","geocoded",170.47,170.47,170.47
"105 CLOUD VIEW RD SAUSALITO CA 94965","105","CLOUD VIEW RD","","SAUSALITO",NA,"","94965","","CA","Cloud View Rd",94965,"Sausalito","CA",37.85253,-122.487293,0.896,"range","geocoded",1302,1302.01,1302.01
"105 Corona Ave Long Beach CA 90803","105","Corona Ave","","Long Beach",NA,"","90803","","CA","Corona Ave",90803,"Long Beach","CA",33.75728,-118.136419,0.949,"range","geocoded",5773,5773,5773
"105 DUNSTABLE WAY  CA 95630","105","DUNSTABLE WAY","","",NA,"","95630","7.2074E+12","CA","Dunstable Way",95630,"White Rock","CA",38.668455,-121.128611,0.917,"range","geocoded",85.02,85.1,85.1
"105 E PORTAL AVE Oak View CA 93022","105","E PORTAL AVE","","Oak View",NA,"","93022","","CA","Portal St",93022,"Oak View","CA",34.391744,-119.299763,0.818,"range","geocoded",11.02,11.02,11.02
"105 GINGER DR  CA 95603","105","GINGER DR","","",NA,"","95603","","CA","Ginger Dr",95603,"Clipper Gap","CA",38.883089,-121.073941,0.938,"range","geocoded",204,204.02,204.02
"105 GURNSEY AVE  CA 96080","105","GURNSEY AVE","","",NA,"","96080","","CA","Gurnsey Ave",96080,"Red Bank","CA",40.183301,-122.214857,0.929,"range","geocoded",6,6,6
"105 HUNTINGTON ST HUNTINGTON BEACH CA ","105","HUNTINGTON ST","","HUNTINGTON BEACH",NA,"CA","","024-204-03","CA",NA,NA,NA,NA,NA,NA,NA,NA,"imprecise_geocode",NA,NA,NA
"105 MCKEE COURT Vallejo CA 94589","105","MCKEE COURT","","Vallejo",NA,"CA","94589","68552200","CA","McKee Ct",94589,"Vallejo","CA",38.147538,-122.222023,0.938,"range","geocoded",2519.03,2519.03,2519.03
"105 PLACER AVE Ventura CA 93004","105","PLACER AVE","","Ventura",NA,"","93004","","CA","Placer Ave",93004,"Ventura","CA",34.292405,-119.168399,0.94,"range","geocoded",12.01,12.01,12.01
"105 Rubicon Cir Danville CA 94526","105","Rubicon Cir","","Danville",NA,"CA","94526","","CA","Rubicon Cir",94526,"Danville","CA",37.828202,-122.008534,0.941,"range","geocoded",3452.01,3452.03,3452.03
"105 Schooner Ct Richmond CA 94804","105","Schooner Ct","","Richmond",NA,"CA","94804","","CA","Schooner Ct",94804,"Richmond","CA",37.916217,-122.351189,0.941,"range","geocoded",3800,3800,3800.01
"1050 COURT ST SAN RAFAEL CA 94901","1050","COURT ST","APT 304","SAN RAFAEL",NA,"","94901","","CA","Court St",94901,"San Rafael","CA",37.973533,-122.52692,0.844,"range","geocoded",1110,1110,1110.01
"1050 GREEN VALLEY RD WATSONVILLE CA 95076","1050","GREEN VALLEY RD","","WATSONVILLE",NA,"","95076","","CA","Green Valley Rd",95076,"Watsonville","CA",36.974076,-121.776112,0.942,"range","geocoded",1224,1224,1224.01
"1050 NORTH POINT ST  CA 94109","1050","NORTH POINT ST","305","",NA,"","94109","","CA","N Point St",94109,"San Francisco","CA",37.805254,-122.42433,0.829,"range","geocoded",102,102,102.02
"1050 PARK HILL LN Escondido CA 92025","1050","PARK HILL LN","","Escondido",NA,"CA","92025","2341512900","CA","Park Hill Ln",92025,"Escondido","CA",33.1198,-117.063219,0.942,"range","geocoded",206.02,206.02,206.02
"1050 S Indiana St Los Angeles CA 90023","1050","S Indiana St","","Los Angeles",NA,"","90023","","CA","S Indiana St",90023,"Los Angeles","CA",34.020956,-118.192196,0.947,"range","geocoded",5313.01,5313.01,5313.01
"10505 S Inglewood Ave Inglewood CA 90304","10505","S Inglewood Ave","","Inglewood",NA,"","90304","","CA","S Inglewood Ave",90304,"Inglewood","CA",33.940869,-118.36141,0.938,"range","geocoded",6015.02,6015.02,6015.02
"1051 N Eaton Ave DINUBA CA 93618","1051","N Eaton Ave","#111","DINUBA",NA,"","93618","","CA","N Eaton Ave",93618,"Dinuba","CA",36.553758,-119.390732,0.935,"range","geocoded",4.02,4.02,4.02
"10516 Cole Rd Whittier CA 90604","10516","Cole Rd","","Whittier",NA,"","90604","","CA","Cole Rd",90604,"Whittier","CA",33.937661,-118.005353,0.951,"range","geocoded",5035.01,5035.01,5035.01
"10517 Vail Dr Sunland CA 91040","10517","Vail Dr","","Sunland",NA,"","91040","","CA","Vail Dr",91040,"Sunland","CA",34.264405,-118.358379,0.948,"range","geocoded",1033,1033,1033
"10518 RIDGECREST DR JACKSON CA 95642","10518","RIDGECREST DR","","JACKSON",NA,"","95642","44440002000","CA","Ridgecrest Dr",95642,"Jackson","CA",38.363079,-120.788382,0.935,"range","geocoded",3.02,3.04,3.04
"10518 Roseton Ave Santa Fe Springs CA 90670","10518","Roseton Ave","","Santa Fe Springs",NA,"","90670","","CA","Roseton Ave",90670,"Santa Fe Springs","CA",33.938352,-118.087648,0.958,"range","geocoded",5028,5028.01,5028.01
"10519 Nashville Ave Whittier CA 90604","10519","Nashville Ave","","Whittier",NA,"","90604","","CA","Nashville Ave",90604,"Whittier","CA",33.939014,-118.010102,0.938,"range","geocoded",5035.01,5035.01,5035.01
"1052 Hollybush Ln Los Angeles CA 90077","1052","Hollybush Ln","","Los Angeles",NA,"","90077","","CA","Hollybush Ln",90077,"Los Angeles","CA",34.094286,-118.440501,0.947,"range","geocoded",2621,2621,2621
"1052 ORDWAY ST ALBANY CA 94706","1052","ORDWAY ST","","ALBANY",NA,"","94706","65-2632-11","CA","Ordway St",94706,"Albany","CA",37.884862,-122.285315,0.939,"range","geocoded",4206,4206,4206
"1052 S Broadway Los Angeles CA 90015","1052","S Broadway","","Los Angeles",NA,"","90015","","CA","S Broadway",90015,"Los Angeles","CA",34.04017,-118.25804,0.951,"range","geocoded",2079,2079,2079.02
"1052 Sanborn Ave Los Angeles CA 90029","1052","Sanborn Ave","","Los Angeles",NA,"","90029","","CA","Sanborn Ave",90029,"Los Angeles","CA",34.09137,-118.281101,0.949,"range","geocoded",1959,1959.01,1959.01
"10525 CAMPBELL AVE RIVERSIDE CA 92505","10525","CAMPBELL AVE","","RIVERSIDE",NA,"","92505","","CA","Campbell Ave",92505,"Riverside","CA",33.935852,-117.48548,0.942,"range","geocoded",411,411.02,411.02
"10525 Foothill Blvd Sylmar CA 91342","10525","Foothill Blvd","","Sylmar",NA,"","91342","","CA","Foothill Blvd",91342,"Sylmar","CA",34.274278,-118.359239,0.932,"range","geocoded",1032,1032,1032.02
"10535 Almayo Ave Los Angeles CA 90064","10535","Almayo Ave","","Los Angeles",NA,"","90064","","CA","Almayo Ave",90064,"Los Angeles","CA",34.045609,-118.420215,0.951,"range","geocoded",2679,2679.02,2679.02
"10536 CAMINITO ALVAREZ San Diego CA 92126","10536","CAMINITO ALVAREZ","304","San Diego",NA,"CA","92126","3410412000","CA","Cmt Alvarez",92126,"San Diego","CA",32.906227,-117.169583,0.936,"range","geocoded",83.5,83.5,83.5
"1054 DOLORES ST LIVERMORE CA 94550","1054","DOLORES ST","APT 4","LIVERMORE",NA,"","94550","98A-611-3","CA","Dolores St",94550,"Livermore","CA",37.67667,-121.756922,0.946,"range","geocoded",4515.01,4515.01,4515.01
"1054 HYDE AV  CA ","1054","HYDE AV","","",NA,"","","37705006","CA",NA,NA,NA,NA,NA,NA,NA,NA,"imprecise_geocode",NA,NA,NA
"1054 U W Imperial Hwy Los Angeles CA 90044","1054 U","W Imperial Hwy","","Los Angeles",NA,"","90044","","CA","W Imperial Hwy",90044,"Los Angeles","CA",33.930838,-118.293499,0.904,"range","geocoded",6028,6028.01,6028.01
"1055 ADOLFO RD Camarillo CA 93012","1055","ADOLFO RD","","Camarillo",NA,"","93012","","CA","Adolfo Rd",93012,"Camarillo","CA",34.214395,-118.991918,0.949,"range","geocoded",53.04,53.04,53.04
"1056 Junipero Ave Long Beach CA 90804","1056","Junipero Ave","","Long Beach",NA,"","90804","","CA","Junipero Ave",90804,"Long Beach","CA",33.780048,-118.163229,0.945,"range","geocoded",5769.01,5769.01,5769.01
"1057 55TH ST  CA 95819","1057","55TH ST","","",NA,"","95819","8.0181E+11","CA","55th St",95819,"Sacramento","CA",38.564289,-121.435949,0.838,"range","geocoded",16,16,16.01
"1057 Nowita Pl Venice CA 90291","1057","Nowita Pl","","Venice",NA,"","90291","","CA","Nowita Pl",90291,"Venice","CA",33.997832,-118.457646,0.939,"range","geocoded",2737,2737,2737
"1057 STATE HIGHWAY LAKE ARROWHEAD CA 92352","1057","STATE HIGHWAY","","LAKE ARROWHEAD",NA,"CA","92352","32905126","CA","State St",92311,NA,NA,34.888159,-117.00471,0.513,"street","geocoded",95,95,95.01
"1057 STEINER ST  CA 94115","1057","STEINER ST","","",NA,"","94115","","CA","Steiner St",94115,"San Francisco","CA",37.778942,-122.433566,0.917,"range","geocoded",158,158.01,158.01
"10570 EMERSON BEND TUSTIN CA ","10570","EMERSON BEND","","TUSTIN",NA,"CA","","525-183-21","CA",NA,NA,NA,NA,NA,NA,NA,NA,"imprecise_geocode",NA,NA,NA
"10577 Frankmont St El Monte CA 91731","10577","Frankmont St","","El Monte",NA,"","91731","","CA","Frankmont St",91731,"El Monte","CA",34.08546,-118.040706,0.94,"range","geocoded",4323,4323,4323
"1058 Calle De Las Estrellas Azusa CA 91702","1058","Calle De Las Estrellas","","Azusa",NA,"","91702","","CA","W Cll de Las Estrellas",91702,"Azusa","CA",34.145767,-117.922077,0.893,"range","geocoded",4006.03,4006.03,4006.03
"10585 SNOWBERRY ROAD Truckee CA 96161","10585","SNOWBERRY ROAD","","Truckee",NA,"CA","96161","1955029000","CA","Snowberry Rd",96161,"Truckee","CA",39.317836,-120.172204,0.933,"range","geocoded",12.01,12.06,12.07
"10586 Road 261 TERRA BELLA CA 93270","10586","Road 261","","TERRA BELLA",NA,"","93270","","CA","Rd 261",93270,"Terra Bella","CA",35.982069,-118.988966,1,"range","geocoded",45,45,45
"10597 BAXTER AVE LOS ALTOS CA 94024","10597","BAXTER AVE","","LOS ALTOS",NA,"","94024","","CA","Baxter Ave",94024,"Los Altos","CA",37.331728,-122.068299,0.946,"range","geocoded",5077.03,5077.03,5077.04
"10599 EAST RIVER STREET Truckee CA 96161","10599","EAST RIVER STREET","","Truckee",NA,"CA","96161","1968018000","CA","E River St",96161,"Truckee","CA",39.331143,-120.169077,0.678,"street","geocoded",12.01,12.06,12.07
"106 ALTA VISTA DR  CA 95060","106","ALTA VISTA DR","","",NA,"","95060","","CA","Alta Vista Dr",95060,"Santa Cruz","CA",36.965589,-122.049036,0.88,"range","geocoded",1005,1005,1005
"106 Bernhard Ave Boyes Hot Springs CA 95476","106","Bernhard Ave","","Boyes Hot Springs",NA,"","95476","","CA","Bernhard Ave",95476,"Buena Vista","CA",38.318146,-122.483666,0.75,"range","geocoded",1503.02,1503.06,1503.06
"106 PROSPECT DR SAN RAFAEL CA 94901","106","PROSPECT DR","SFR","SAN RAFAEL",NA,"","94901","","CA","Prospect Dr",94901,"San Rafael","CA",37.980625,-122.524163,0.947,"range","geocoded",1090,1090.01,1090.01
"1060 Bennett Ave Long Beach CA 90804","1060","Bennett Ave","","Long Beach",NA,"","90804","","CA","Bennett Ave",90804,"Long Beach","CA",33.780069,-118.14255,0.947,"range","geocoded",5770,5770,5770
"1060 BUENA VISTA DR Vista CA 92081","1060","BUENA VISTA DR","","Vista",NA,"CA","92081","1691001600","CA","Buena Vista Dr",92081,"San Marcos","CA",33.178017,-117.248407,0.885,"range","geocoded",197.02,197.02,197.02
"1060 Elm Ave Glendale CA 91201","1060","Elm Ave","14","Glendale",NA,"","91201","","CA","Elm Ave",91201,"Glendale","CA",34.17428,-118.296676,0.951,"range","geocoded",3016.01,3016.01,3016.01
"10609 FRANKLIN BLVD  CA 95757","10609","FRANKLIN BLVD","","",NA,"","95757","1.32013E+13","CA","Franklin Blvd",95757,"Elk Grove","CA",38.372078,-121.454352,0.917,"range","geocoded",96.04,96.38,96.53
"10609 SANTA ANA  CA ","10609","SANTA ANA","","",NA,"","","","CA",NA,NA,NA,NA,NA,NA,NA,NA,"imprecise_geocode",NA,NA,NA
"1061 GLENWAY DR El Cajon CA 92020","1061","GLENWAY DR","","El Cajon",NA,"CA","92020","4934501700","CA","Glenway Dr",92020,"El Cajon","CA",32.780152,-116.944818,0.944,"range","geocoded",154.04,154.04,154.07
"10613 Everest St Norwalk CA 90650","10613","Everest St","","Norwalk",NA,"","90650","","CA","Everest St",90650,"Norwalk","CA",33.919616,-118.107703,0.94,"range","geocoded",5503,5503,5503.01
"10619 GRAND PRAIRIE DR BAKERSFIELD CA 93311","10619","GRAND PRAIRIE DR","","BAKERSFIELD",NA,"CA","93311","83329","CA","Grand Prairie Dr",93311,"Bakersfield","CA",35.299443,-119.120677,0.941,"range","geocoded",31.23,31.23,31.35
"1062 GRAND TETON DR  CA ","1062","GRAND TETON DR","","",NA,"","","23662070","CA",NA,NA,NA,NA,NA,NA,NA,NA,"imprecise_geocode",NA,NA,NA
"1062 N A St TULARE CA 93274","1062","N A St","","TULARE",NA,"","93274","","CA","N A St",93274,"Tulare","CA",36.221883,-119.359855,0.947,"range","geocoded",22.01,22.04,22.04
"1062 NILDA AVE MOUNTAIN VIEW CA 94040","1062","NILDA AVE","","MOUNTAIN VIEW",NA,"","94040","","CA","Nilda Ave",94040,"Mountain View","CA",37.381376,-122.079629,0.958,"range","geocoded",5098.02,5098.02,5098.02
"1062 W 51st St Los Angeles CA 90037","1062","W 51st St","","Los Angeles",NA,"","90037","","CA","W 51st St",90037,"Los Angeles","CA",33.996792,-118.292672,0.914,"range","geocoded",2323,2323,2323
"10620 ESCOBAR DR San Diego CA 92124","10620","ESCOBAR DR","","San Diego",NA,"CA","92124","3731200300","CA","Escobar Dr",92124,"San Diego","CA",32.82433,-117.102753,0.946,"range","geocoded",95.06,95.06,95.06
"10621 EL NOPAL Santee CA 92071","10621","EL NOPAL","","Santee",NA,"CA","92071","3812810600","CA","el Nopal",92071,"Santee","CA",32.862318,-116.968281,0.941,"range","geocoded",166.07,166.07,166.07
"1063 N Lynora St TULARE CA 93274","1063","N Lynora St","","TULARE",NA,"","93274","","CA","N Lynora St",93274,"Tulare","CA",36.221134,-119.330309,0.935,"range","geocoded",23.02,23.02,23.02
"10631 CANYON GRV  CA 92130","10631","CANYON GRV","11","",NA,"CA","92130","3080305811","CA","Canyon Grv",92130,"San Diego","CA",32.929666,-117.199547,0.932,"range","geocoded",83.33,83.33,83.74
"10631 Etiwanda Ave Porter Ranch CA 91326","10631","Etiwanda Ave","","Porter Ranch",NA,"","91326","","CA","Etiwanda Ave",91326,"Porter Ranch","CA",34.263579,-118.531727,0.949,"range","geocoded",1112.03,1112.06,1112.06
"10638 GLENDOVER LN San Diego CA 92126","10638","GLENDOVER LN","","San Diego",NA,"CA","92126","3114211400","CA","Glendover Ln",92126,"San Diego","CA",32.910894,-117.170104,0.942,"range","geocoded",83.48,83.48,83.48
"1064 RANCHO RD Ojai CA 93023","1064","RANCHO RD","","Ojai",NA,"","93023","","CA","Rancho Dr",93023,"Ojai","CA",34.452098,-119.264376,0.898,"range","geocoded",9.01,9.01,9.01
"1064 RIVERSIDE WAY SAN JOSE CA 95129","1064","RIVERSIDE WAY","","SAN JOSE",NA,"CA","95129","","CA","Riverside Way",95129,"San Jose","CA",37.309117,-122.023509,0.743,"street","geocoded",5079.06,5079.06,5079.06
"10641 Butterfield Rd Los Angeles CA 90064","10641","Butterfield Rd","","Los Angeles",NA,"","90064","","CA","Butterfield Rd",90064,"Los Angeles","CA",34.036756,-118.417111,0.944,"range","geocoded",2693,2693,2693
"10643 RANDY LN CUPERTINO CA 95014","10643","RANDY LN","","CUPERTINO",NA,"","95014","","CA","Randy Ln",95014,"Cupertino","CA",37.331998,-122.026195,0.951,"range","geocoded",5081.01,5081.01,5081.01
"1065 Hurstview St Duarte CA 91010","1065","Hurstview St","","Duarte",NA,"","91010","","CA","Hurstview St",91010,"Duarte","CA",34.128604,-117.98351,0.933,"range","geocoded",4301.02,4301.02,4301.02
"1065 SKEEL DR Camarillo CA 93010","1065","SKEEL DR","","Camarillo",NA,"","93010","","CA","Skeel Dr",93010,"Camarillo","CA",34.228584,-119.060567,0.951,"range","geocoded",55.03,55.03,55.03
"10651 VILLAGE HVN  CA 92130","10651","VILLAGE HVN","110","",NA,"CA","92130","3080307214","CA","Village Pl",92101,NA,NA,32.733077,-117.146009,0.53,"street","geocoded",56,56,56.02
"10652 CASSOWARY CT San Diego CA 92131","10652","CASSOWARY CT","","San Diego",NA,"CA","92131","3195405300","CA","Cassowary Ct",92131,"San Diego","CA",32.932319,-117.098331,0.942,"range","geocoded",170.43,170.43,170.43
"10660 BRUNS DR TUSTIN CA ","10660","BRUNS DR","","TUSTIN",NA,"CA","","525-031-29","CA",NA,NA,NA,NA,NA,NA,NA,NA,"imprecise_geocode",NA,NA,NA
"10677 PAR THREE DR CUPERTINO CA 95014","10677","PAR THREE DR","","CUPERTINO",NA,"CA","95014","","CA","Par Three Dr",95014,"Cupertino","CA",37.31256,-122.06306,0.82,"range","geocoded",5077.02,5077.02,5077.02
"1068 JAEGER RD Spring Valley CA 91977","1068","JAEGER RD","","Spring Valley",NA,"CA","91977","5801811800","CA","Jaeger Rd",91977,"Spring Valley","CA",32.715027,-116.981525,0.958,"range","geocoded",139.09,139.09,139.09
"10681 BLAKE ST GARDEN GROVE CA ","10681","BLAKE ST","","GARDEN GROVE",NA,"CA","","099-432-19","CA",NA,NA,NA,NA,NA,NA,NA,NA,"imprecise_geocode",NA,NA,NA
"1069 ORBISON CT  CA 95630","1069","ORBISON CT","","",NA,"","95630","7.2157E+12","CA","Orbison Ct",95630,"Folsom Junction","CA",38.647365,-121.145587,0.928,"range","geocoded",85.03,85.08,85.08
"10690 MINETTE DR CUPERTINO CA 95014","10690","MINETTE DR","","CUPERTINO",NA,"","95014","","CA","Minette Dr",95014,"Cupertino","CA",37.312965,-122.001615,0.946,"range","geocoded",5080.02,5080.04,5080.04
"10694 Alta Ln KINGS CANYON NATIONAL PARK CA 93633","10694","Alta Ln","","KINGS CANYON NATIONAL PARK",NA,"","93633","","CA","Alta Ln",93633,"Wilsonia","CA",NA,NA,0.492,"street","imprecise_geocode",NA,NA,NA
"107 BAY PARK TE ALAMEDA CA 94502","107","BAY PARK TE","","ALAMEDA",NA,"","94502","74-1336-183","CA","Bay Park Ter",94502,"Alameda","CA",37.747418,-122.242355,0.914,"range","geocoded",4283.02,4283.02,4283.02
"107 Petaluma Way City of Petaluma CA 94954","107","Petaluma Way","","City of Petaluma",NA,"","94954","","CA","Petaluma Way",94954,"Petaluma","CA",38.26177,-122.651952,0.812,"range","geocoded",1506.05,1506.09,1506.09
"107 VIA DEL CERRITO Encinitas CA 92024","107","VIA DEL CERRITO","","Encinitas",NA,"CA","92024","2592310100","CA","Via del Cerrito",92024,"Encinitas","CA",33.03932,-117.241917,0.938,"range","geocoded",174.03,171.04,171.04
"107 VISTA VIEW DRIVE Vacaville CA 95688","107","VISTA VIEW DRIVE","","Vacaville",NA,"CA","95688","126183070","CA","View Ct",95628,NA,NA,NA,NA,0.447,"street","imprecise_geocode",NA,NA,NA
"1070 NEVADA AV  CA ","1070","NEVADA AV","","",NA,"","","42923021","CA",NA,NA,NA,NA,NA,NA,NA,NA,"imprecise_geocode",NA,NA,NA
"1070 W Olive Ave PORTERVILLE CA 93257","1070","W Olive Ave","","PORTERVILLE",NA,"","93257","","CA","W Olive Ave",93257,"East Porterville","CA",36.066041,-119.040647,0.962,"range","geocoded",36.02,36.02,36.02
"10700 Colima Rd Whittier CA 90604","10700","Colima Rd","912","Whittier",NA,"","90604","","CA","Colima Rd",90604,"Whittier","CA",33.936442,-118.015821,0.946,"range","geocoded",5035.01,5035.01,5035.01
"10707 S Central Ave Los Angeles CA 90002","10707","S Central Ave","","Los Angeles",NA,"","90002","","CA","S Central Ave",90059,"Los Angeles","CA",33.939223,-118.254231,0.848,"range","geocoded",2408,2408,2408
"10708 MC CORMAC AV  CA ","10708","MC CORMAC AV","","",NA,"","","","CA",NA,NA,NA,NA,NA,NA,NA,NA,"imprecise_geocode",NA,NA,NA
"10709 Carnaby St Cerritos CA 90703","10709","Carnaby St","","Cerritos",NA,"","90703","","CA","Carnaby St",90703,"Cerritos","CA",33.866782,-118.108318,0.944,"range","geocoded",5545.21,5545.21,5545.21
"1071 E Cleveland Ave PORTERVILLE CA 93257","1071","E Cleveland Ave","","PORTERVILLE",NA,"","93257","","CA","E Cleveland Ave",93257,"East Porterville","CA",36.070023,-118.993195,0.953,"range","geocoded",39.01,39.01,39.03
"1071 NORSTAD ST SAN JOSE CA 95128","1071","NORSTAD ST","","SAN JOSE",NA,"","95128","","CA","Norstad St",95128,"San Jose","CA",37.306524,-121.935063,0.944,"range","geocoded",5021.01,5021.01,5021.01
"10710 Beak Ave South Gate CA 90280","10710","Beak Ave","","South Gate",NA,"","90280","","CA","Beak Ave",90280,"South Gate","CA",33.93166,-118.163359,0.954,"range","geocoded",5361.02,5361.02,5361.02
"10712 BRANDYWINE FALLS AVE BAKERSFIELD CA 93312","10712","BRANDYWINE FALLS AVE","","BAKERSFIELD",NA,"CA","93312","53109","CA","Brandywine Falls Ave",93312,"Bakersfield","CA",35.415737,-119.120477,0.936,"range","geocoded",38.05,38.05,38.18
"10717 GREEN VALLEY RD APPLE VALLEY CA 92308","10717","GREEN VALLEY RD","","APPLE VALLEY",NA,"CA","92308","43493154","CA","Green Valley Rd",92308,"Apple Valley","CA",34.448149,-117.239936,0.944,"range","geocoded",97.07,97.07,97.18
"1072 Casiano Rd Los Angeles CA 90049","1072","Casiano Rd","","Los Angeles",NA,"","90049","","CA","Casiano Rd",90049,"Los Angeles","CA",34.080068,-118.469407,0.951,"range","geocoded",2622,2622,2622
"1072 ECHO DR LOS ALTOS CA 94024","1072","ECHO DR","","LOS ALTOS",NA,"","94024","","CA","Echo Dr",94024,"Los Altos","CA",37.363777,-122.100781,0.954,"range","geocoded",5102,5102,5102
"1072 Stoneybrook Dr Martinez CA 94553","1072","Stoneybrook Dr","","Martinez",NA,"CA","94553","","CA","Stoneybrook Dr",94553,"Martinez","CA",37.997233,-122.102711,0.936,"range","geocoded",3200.02,3200.03,3200.03
"1072 W 26th St San Pedro CA 90731","1072","W 26th St","","San Pedro",NA,"","90731","","CA","W 26th St",90731,"San Pedro","CA",33.720736,-118.300377,0.911,"range","geocoded",2972,2975,2975.02
"10721 La Rosa Dr Temple City CA 91780","10721","La Rosa Dr","","Temple City",NA,"","91780","","CA","la Rosa Dr",91780,"Temple City","CA",34.096822,-118.035752,0.951,"range","geocoded",4315,4315.01,4315.01
"10725 S Van Ness Ave Inglewood CA 90303","10725","S Van Ness Ave","0","Inglewood",NA,"","90303","","CA","S Van Ness Ave",90303,"Inglewood","CA",33.938815,-118.317788,0.939,"range","geocoded",6006.01,6006.01,6006.01
"10726 Des Moines Ave Porter Ranch CA 91326","10726","Des Moines Ave","","Porter Ranch",NA,"","91326","","CA","Des Moines Ave",91326,"Porter Ranch","CA",34.264371,-118.555037,0.946,"range","geocoded",1112.04,1112.04,1112.04
"1073 Ella St  CA 93401","1073","Ella St","","",NA,"","93401","","CA","Ella St",93401,"San Luis Obispo","CA",35.274619,-120.653582,0.922,"range","geocoded",110,110.02,110.02
"1073 SUN UP CIR SAN JACINTO CA 92582","1073","SUN UP CIR","","SAN JACINTO",NA,"","92582","","CA","Sun Up Cir",92582,"San Jacinto","CA",33.788007,-116.979744,0.951,"range","geocoded",435.1,513,513.01
"10731 FIRE ISLAND CI  CA ","10731","FIRE ISLAND CI","","",NA,"","","6804016","CA",NA,NA,NA,NA,NA,NA,NA,NA,"imprecise_geocode",NA,NA,NA
"10732 BANCROFT AV OAKLAND CA 94603","10732","BANCROFT AV","","OAKLAND",NA,"","94603","47-5566-14","CA","Bancroft Ave",94603,"Oakland","CA",37.740663,-122.156404,0.792,"range","geocoded",4104,4104,4104
"10735 MIRA LAGO TER San Diego CA 92131","10735","MIRA LAGO TER","","San Diego",NA,"CA","92131","3194011300","CA","Mira Lago Ter",92131,"San Diego","CA",32.917893,-117.084507,0.941,"range","geocoded",170.46,170.46,170.46
"1074 CRELLIN RD PLEASANTON CA 94566","1074","CRELLIN RD","","PLEASANTON",NA,"","94566","946-2553-46","CA","Crellin Rd",94566,"Pleasanton","CA",37.659091,-121.849063,0.949,"range","geocoded",4507.42,4507.42,4507.42
"1074 Molino Ave Long Beach CA 90804","1074","Molino Ave","103","Long Beach",NA,"","90804","","CA","Molino Ave",90804,"Long Beach","CA",33.780335,-118.161051,0.949,"range","geocoded",5769.02,5769.03,5769.03
"10744 Flaxton St Culver City CA 90230","10744","Flaxton St","","Culver City",NA,"","90230","","CA","Flaxton St",90230,"Culver City","CA",33.99954,-118.388606,0.951,"range","geocoded",7026,7026,7026
"1075 ARROWHEAD WAY PALO ALTO CA 94303","1075","ARROWHEAD WAY","","PALO ALTO",NA,"","94303","","CA","Arrowhead Way",94303,"East Palo Alto","CA",37.444111,-122.123849,0.953,"range","geocoded",5110,5110,5110
"1075 Kipling Ct Concord CA 94518","1075","Kipling Ct","","Concord",NA,"CA","94518","","CA","Kipling Ct",94518,"Concord","CA",37.954333,-122.009191,0.94,"range","geocoded",3371,3371,3371
"10754 CARIUTO CT San Diego CA 92124","10754","CARIUTO CT","","San Diego",NA,"CA","92124","3732201000","CA","Cariuto Ct",92124,"San Diego","CA",32.824585,-117.098001,0.946,"range","geocoded",95.06,95.06,95.06
"10760 EL CAMINO NUEVO Monterey CA 93940","10760","EL CAMINO NUEVO","","Monterey",NA,"","93940","","CA","el Camino Nuevo",93940,"New Monterey","CA",36.561399,-121.788959,0.889,"range","geocoded",132,132,132
"1077 58TH ST  CA 95819","1077","58TH ST","","",NA,"","95819","8.0184E+11","CA","58th St",95819,"Sacramento","CA",38.563048,-121.432805,0.838,"range","geocoded",16,16,16.01
"1078 Redstone Pl Hayward CA 94542","1078","Redstone Pl","","Hayward",NA,"","94542","21230","CA","Redstone Pl",94542,"Hayward","CA",37.663767,-122.070771,0.938,"range","geocoded",4365,4365,4365
"10787 SIMMERHORN RD  CA 95632","10787","SIMMERHORN RD","","",NA,"","95632","1.50006E+13","CA","Simmerhorn Rd",95632,"Galt","CA",38.262181,-121.288,0.902,"range","geocoded",94.05,94.08,94.08
"1079 MIKKELSEN DR  CA 95603","1079","MIKKELSEN DR","","",NA,"","95603","","CA","Mikkelsen Dr",95603,"Cherry Creek Acres","CA",38.914985,-121.069915,0.919,"range","geocoded",203,203,203
"1079 Sierra Vista Way Lafayette CA 94549","1079","Sierra Vista Way","","Lafayette",NA,"CA","94549","","CA","Sierra Vista Way",94549,"Lafayette","CA",37.897089,-122.117073,0.9,"range","geocoded",3480,3480,3480
"108 ATKINSON LN WATSONVILLE CA 95076","108","ATKINSON LN","","WATSONVILLE",NA,"","95076","","CA","Atkinson Ln",95076,"Watsonville","CA",36.933,-121.763747,0.949,"range","geocoded",1102,1102,1102.02
"108 Boxford Pl San Ramon CA 94583","108","Boxford Pl","","San Ramon",NA,"CA","94583","","CA","Boxford Pl",94583,"San Ramon","CA",37.738301,-121.944614,0.946,"range","geocoded",3451.01,3451.01,3451.01
